Key,CSAFP,NAME,Longitude,Latitude,1/22/2020,1/23/2020,1/24/2020,1/25/2020,1/26/2020,1/27/2020,1/28/2020,1/29/2020,1/30/2020,1/31/2020,2/1/2020,2/2/2020,2/3/2020,2/4/2020,2/5/2020,2/6/2020,2/7/2020,2/8/2020,2/9/2020,2/10/2020,2/11/2020,2/12/2020,2/13/2020,2/14/2020,2/15/2020,2/16/2020,2/17/2020,2/18/2020,2/19/2020,2/20/2020,2/21/2020,2/22/2020,2/23/2020,2/24/2020,2/25/2020,2/26/2020,2/27/2020,2/28/2020,2/29/2020,3/1/2020,3/2/2020,3/3/2020,3/4/2020,3/5/2020,3/6/2020,3/7/2020,3/8/2020,3/9/2020,3/10/2020,3/11/2020,3/12/2020,3/13/2020,3/14/2020,3/15/2020,3/16/2020,3/17/2020,3/18/2020,3/19/2020,3/20/2020,3/21/2020,3/22/2020,3/23/2020,3/24/2020,3/25/2020,3/26/2020,3/27/2020,3/28/2020,3/29/2020,3/30/2020,3/31/2020,4/1/2020,4/2/2020,4/3/2020,4/4/2020,4/5/2020,4/6/2020,4/7/2020,4/8/2020,4/9/2020,4/10/2020,4/11/2020,4/12/2020,4/13/2020,4/14/2020,4/15/2020,4/16/2020,4/17/2020
104,104,"Albany-Schenectady, NY",-73.90890421309877,42.79207801554321,0,0,0,0,0,0,0,0,0,0,0,0,0,0,0,0,0,0,0,0,0,0,0,0,0,0,0,0,0,0,0,0,0,0,0,0,0,0,0,0,0,0,0,0,0,2,2,2,2,2,5,6,11,11,25,41,72,80,122,189,234,238,304,336,388,429,478,503,533,549,598,644,697,744,804,836,886,914,1023,1113,1153,1204,1257,1418,1447,1501,1620
106,106,"Albuquerque-Santa Fe-Las Vegas, NM",-106.66087509389313,35.30243432989096,0,0,0,0,0,0,0,0,0,0,0,0,0,0,0,0,0,0,0,0,0,0,0,0,0,0,0,0,0,0,0,0,0,0,0,0,0,0,0,0,0,0,0,0,0,0,0,0,0,1,3,8,11,11,19,20,25,32,37,48,48,58,65,76,76,90,142,158,158,213,213,241,330,334,433,462,524,524,561,685,691,791,806,818,868,868,917
107,107,"Altoona-Huntingdon, PA",-78.17727809384616,40.45285078461538,0,0,0,0,0,0,0,0,0,0,0,0,0,0,0,0,0,0,0,0,0,0,0,0,0,0,0,0,0,0,0,0,0,0,0,0,0,0,0,0,0,0,0,0,0,0,0,0,0,0,0,0,0,0,0,0,0,0,0,0,0,0,0,0,1,1,3,4,7,5,5,6,7,9,9,9,11,12,14,17,20,20,22,22,24,25,26
108,108,"Amarillo-Pampa-Borger, TX",-101.80469386334842,35.229997832217194,0,0,0,0,0,0,0,0,0,0,0,0,0,0,0,0,0,0,0,0,0,0,0,0,0,0,0,0,0,0,0,0,0,0,0,0,0,0,0,0,0,0,0,0,0,0,0,0,0,0,0,0,0,0,0,0,0,2,3,3,3,5,6,6,6,8,8,13,13,20,35,36,46,57,83,89,91,103,127,132,144,152,153,172,172,199,221
118,118,"Appleton-Oshkosh-Neenah, WI",-88.53494833457142,44.223416663571435,0,0,0,0,0,0,0,0,0,0,0,0,0,0,0,0,0,0,0,0,0,0,0,0,0,0,0,0,0,0,0,0,0,0,0,0,0,0,0,0,0,0,0,0,0,0,0,0,0,0,0,0,1,1,4,4,6,7,8,8,8,8,8,10,11,11,12,15,20,24,33,41,46,46,45,50,53,53,55,58,58,60,61,63,67,68,70
120,120,"Asheville-Marion-Brevard, NC",-82.46866423304347,35.44605048217391,0,0,0,0,0,0,0,0,0,0,0,0,0,0,0,0,0,0,0,0,0,0,0,0,0,0,0,0,0,0,0,0,0,0,0,0,0,0,0,0,0,0,0,0,0,0,0,0,0,0,0,0,0,0,0,0,1,1,1,2,5,11,17,18,25,27,34,40,41,52,53,59,68,72,98,102,103,110,114,119,130,138,159,164,168,179,184
122,122,"Atlanta--Athens-Clarke County--Sandy Springs, GA-AL",-84.35251302423816,33.802906581498085,0,0,0,0,0,0,0,0,0,0,0,0,0,0,0,0,0,0,0,0,0,0,0,0,0,0,0,0,0,0,0,0,0,0,0,0,0,0,0,0,0,2,2,2,3,5,5,10,17,22,28,36,61,86,107,128,175,234,354,398,452,571,718,813,987,1312,1606,1780,1962,2549,2802,3134,3656,4004,4302,4697,5258,5691,5972,6380,6696,6949,7523,8574,8839,9303,10153
140,140,"Bend-Prineville, OR",-121.21483766290324,43.91935655774194,0,0,0,0,0,0,0,0,0,0,0,0,0,0,0,0,0,0,0,0,0,0,0,0,0,0,0,0,0,0,0,0,0,0,0,0,0,0,0,0,0,0,0,0,0,0,0,0,0,1,1,1,3,3,4,6,6,6,8,9,10,10,10,10,15,18,20,23,25,24,27,32,37,37,40,40,41,45,51,51,52,55,55,56,56,60,62
142,142,"Birmingham-Hoover-Talladega, AL",-86.81739286380166,33.5141703067686,0,0,0,0,0,0,0,0,0,0,0,0,0,0,0,0,0,0,0,0,0,0,0,0,0,0,0,0,0,0,0,0,0,0,0,0,0,0,0,0,0,0,0,0,0,0,0,0,0,0,0,1,1,5,20,26,30,46,63,82,95,117,132,195,250,295,329,390,406,439,467,506,585,631,692,731,787,816,878,940,1006,1064,1110,1128,1141,1167,1210
144,144,"Bloomington-Bedford, IN",-86.5413731547317,39.05798332541463,0,0,0,0,0,0,0,0,0,0,0,0,0,0,0,0,0,0,0,0,0,0,0,0,0,0,0,0,0,0,0,0,0,0,0,0,0,0,0,0,0,0,0,0,0,0,0,0,0,0,0,0,0,0,0,0,0,2,1,2,2,2,6,9,12,18,28,39,45,50,56,60,75,94,102,102,115,132,134,147,156,170,177,183,187,197,205
145,145,"Bloomington-Pontiac, IL",-88.79481959554457,40.56159793831683,0,0,0,0,0,0,0,0,0,0,0,0,0,0,0,0,0,0,0,0,0,0,0,0,0,0,0,0,0,0,0,0,0,0,0,0,0,0,0,0,0,0,0,0,0,0,0,0,0,0,0,0,0,0,0,0,0,0,1,6,7,8,8,8,9,12,12,16,19,22,23,37,41,46,53,55,67,75,83,89,90,93,96,98,99,99,101
146,146,"Bloomsburg-Berwick-Sunbury, PA",-76.60286784163077,40.98036516316923,0,0,0,0,0,0,0,0,0,0,0,0,0,0,0,0,0,0,0,0,0,0,0,0,0,0,0,0,0,0,0,0,0,0,0,0,0,0,0,0,0,0,0,0,0,0,0,0,0,0,0,0,0,0,0,0,0,0,0,1,2,2,4,5,7,8,11,13,23,23,32,39,46,59,87,92,117,130,146,171,197,219,236,264,278,303,325
147,147,"Boise City-Mountain Home-Ontario, ID-OR",-116.34632810298507,43.49651917965175,0,0,0,0,0,0,0,0,0,0,0,0,0,0,0,0,0,0,0,0,0,0,0,0,0,0,0,0,0,0,0,0,0,0,0,0,0,0,0,0,0,0,0,0,0,0,0,0,0,0,0,0,1,2,2,3,3,3,9,12,12,16,24,29,53,81,101,117,158,251,259,392,410,475,511,531,553,584,600,672,697,704,713,741,749,795,804
148,148,"Boston-Worcester-Providence, MA-RI-NH-CT",-71.2367771253379,42.30093807888798,0,0,0,0,0,0,0,0,0,0,1,1,1,1,1,1,1,1,1,1,1,1,1,1,1,1,1,1,1,1,1,1,1,1,1,1,1,1,1,2,3,4,4,4,8,9,25,25,40,92,104,120,153,153,207,243,291,362,446,561,696,828,1168,1716,2227,2949,3806,4475,5203,6242,7403,8738,10075,11306,12273,13587,14957,16792,18763,20850,22946,25319,26645,27695,30287,32482,35323
150,150,"Bowling Green-Glasgow, KY",-86.48500047446043,37.07838215820144,0,0,0,0,0,0,0,0,0,0,0,0,0,0,0,0,0,0,0,0,0,0,0,0,0,0,0,0,0,0,0,0,0,0,0,0,0,0,0,0,0,0,0,0,0,0,0,0,0,0,0,0,0,0,0,0,0,0,2,2,2,4,4,6,6,6,6,12,15,19,19,19,19,27,29,29,30,30,35,35,35,75,75,82,90,114,139
154,154,"Brownsville-Harlingen-Raymondville, TX",-97.48478885833936,26.15355313209386,0,0,0,0,0,0,0,0,0,0,0,0,0,0,0,0,0,0,0,0,0,0,0,0,0,0,0,0,0,0,0,0,0,0,0,0,0,0,0,0,0,0,0,0,0,0,0,0,0,0,0,0,0,0,0,0,2,0,1,2,6,6,6,7,10,14,14,21,22,28,28,40,58,67,82,92,106,115,123,152,164,200,200,221,244,261,277
160,160,"Buffalo-Cheektowaga-Olean, NY",-78.73157454371278,42.798209681611205,0,0,0,0,0,0,0,0,0,0,0,0,0,0,0,0,0,0,0,0,0,0,0,0,0,0,0,0,0,0,0,0,0,0,0,0,0,0,0,0,0,0,0,0,0,0,0,0,0,0,0,0,3,3,7,11,20,32,51,59,65,96,124,134,220,268,352,456,490,546,635,716,837,918,1185,1280,1373,1505,1604,1672,1692,1793,1883,1978,2073,2212,2284
161,161,"Burlington-Fort Madison-Keokuk, IA-IL-MO",-91.25391040437499,40.73304162375,0,0,0,0,0,0,0,0,0,0,0,0,0,0,0,0,0,0,0,0,0,0,0,0,0,0,0,0,0,0,0,0,0,0,0,0,0,0,0,0,0,0,0,0,0,0,0,0,0,0,0,0,0,0,0,0,0,0,0,0,0,0,0,1,1,1,1,1,1,1,2,1,1,3,3,3,5,6,6,6,6,7,9,11,13,14,16
162,162,"Burlington-South Burlington-Barre, VT",-73.02659183038078,44.52314304833667,0,0,0,0,0,0,0,0,0,0,0,0,0,0,0,0,0,0,0,0,0,0,0,0,0,0,0,0,0,0,0,0,0,0,0,0,0,0,0,0,0,0,0,0,0,0,0,0,0,0,1,1,2,2,5,5,5,5,10,26,26,37,45,63,86,105,122,138,138,180,194,211,241,289,320,336,366,366,398,398,462,476,486,488,488,495,499
163,163,"Cape Coral-Fort Myers-Naples, FL",-81.66568243762741,26.407408437535505,0,0,0,0,0,0,0,0,0,0,0,0,0,0,0,0,0,0,0,0,0,0,0,0,0,0,0,0,0,0,0,0,0,0,0,0,0,0,0,0,0,0,0,0,0,2,2,2,2,5,6,7,7,10,10,11,23,29,39,45,59,69,73,89,121,157,193,220,286,356,366,457,512,575,617,652,714,749,799,879,944,998,1040,1060,1098,1130,1197
164,164,"Cape Girardeau-Sikeston, MO-IL",-89.63065072913581,37.20953384604939,0,0,0,0,0,0,0,0,0,0,0,0,0,0,0,0,0,0,0,0,0,0,0,0,0,0,0,0,0,0,0,0,0,0,0,0,0,0,0,0,0,0,0,0,0,0,0,0,0,0,0,0,0,0,0,0,0,0,1,1,1,1,1,4,5,7,9,9,19,22,22,22,22,24,24,31,32,33,36,42,45,46,57,58,59,77,81
168,168,"Cedar Rapids-Iowa City, IA",-91.61847623851371,41.81844117145743,0,0,0,0,0,0,0,0,0,0,0,0,0,0,0,0,0,0,0,0,0,0,0,0,0,0,0,0,0,0,0,0,0,0,0,0,0,0,0,0,0,0,0,0,0,0,0,3,7,12,13,14,14,14,15,15,22,23,23,32,39,44,47,58,71,94,112,124,167,198,215,231,256,294,331,362,394,424,474,503,532,552,587,607,633,652,693
170,170,"Charleston-Huntington-Ashland, WV-OH-KY",-82.0703866439155,38.404537677492954,0,0,0,0,0,0,0,0,0,0,0,0,0,0,0,0,0,0,0,0,0,0,0,0,0,0,0,0,0,0,0,0,0,0,0,0,0,0,0,0,0,0,0,0,0,0,0,0,0,0,0,0,0,0,0,0,0,0,2,4,6,6,7,9,14,26,32,35,43,56,66,74,79,106,112,127,146,161,177,211,212,230,242,251,305,329,355
172,172,"Charlotte-Concord, NC-SC",-80.80338902686222,35.26573321100001,0,0,0,0,0,0,0,0,0,0,0,0,0,0,0,0,0,0,0,0,0,0,0,0,0,0,0,0,0,0,0,0,0,0,0,0,0,0,0,0,0,0,0,0,0,0,0,0,0,1,3,3,5,7,11,17,22,42,62,99,116,148,208,256,314,390,460,529,600,672,720,857,971,1077,1112,1245,1364,1426,1486,1579,1680,1732,1901,1961,2027,2153,2250
174,174,"Chattanooga-Cleveland-Dalton, TN-GA",-85.07819744718024,34.953629970087206,0,0,0,0,0,0,0,0,0,0,0,0,0,0,0,0,0,0,0,0,0,0,0,0,0,0,0,0,0,0,0,0,0,0,0,0,0,0,0,0,0,0,0,0,0,0,0,0,0,0,0,3,3,3,3,3,7,9,10,13,19,25,24,46,56,61,71,80,80,107,120,149,165,175,180,198,222,225,233,252,262,272,288,308,317,326,344
176,176,"Chicago-Naperville, IL-IN-WI",-87.85551461180862,41.8363590993603,0,0,1,1,1,1,1,1,1,2,2,2,2,2,2,2,2,2,2,2,2,2,2,2,2,2,2,2,2,2,2,2,2,2,2,2,2,2,2,3,4,4,4,5,5,6,7,7,12,25,32,46,60,60,76,154,262,402,404,727,1029,1201,1520,1841,1862,3006,3479,4558,4997,5961,6940,7645,8479,10256,11129,12110,13357,14836,16121,17532,18881,20558,21745,22948,24302,25535,27341
178,178,"Cincinnati-Wilmington-Maysville, OH-KY-IN",-84.53739710416724,39.19018316144437,0,0,0,0,0,0,0,0,0,0,0,0,0,0,0,0,0,0,0,0,0,0,0,0,0,0,0,0,0,0,0,0,0,0,0,0,0,0,0,0,0,0,0,0,0,0,0,0,0,0,0,0,4,4,6,8,10,12,24,31,50,63,86,101,119,141,175,209,234,286,332,383,428,557,609,705,765,818,921,990,1027,1138,1237,1219,1273,1353,1447
184,184,"Cleveland-Akron-Canton, OH",-81.61122752676917,41.2955301786593,0,0,0,0,0,0,0,0,0,0,0,0,0,0,0,0,0,0,0,0,0,0,0,0,0,0,0,0,0,0,0,0,0,0,0,0,0,0,0,0,0,0,0,0,0,0,0,0,3,4,4,9,17,18,36,48,60,80,109,147,203,249,293,356,444,575,665,793,911,982,1091,1246,1417,1499,1574,1682,1757,1870,1966,2058,2182,2301,2404,2482,2604,2762,2894
185,185,"Cleveland-Indianola, MS",-90.7677687583471,33.72443252280992,0,0,0,0,0,0,0,0,0,0,0,0,0,0,0,0,0,0,0,0,0,0,0,0,0,0,0,0,0,0,0,0,0,0,0,0,0,0,0,0,0,0,0,0,0,0,0,0,0,0,0,0,0,0,0,0,2,2,2,2,5,6,7,7,10,14,18,21,21,33,37,39,45,52,64,70,79,81,89,95,100,103,106,110,112,117,121
188,188,"Clovis-Portales, NM",-103.35898411818181,34.523916523636366,0,0,0,0,0,0,0,0,0,0,0,0,0,0,0,0,0,0,0,0,0,0,0,0,0,0,0,0,0,0,0,0,0,0,0,0,0,0,0,0,0,0,0,0,0,0,0,0,0,0,0,0,0,0,0,0,0,0,0,0,0,0,1,1,1,1,2,4,4,4,4,6,7,7,7,7,9,9,9,10,10,11,11,11,11,11,11
190,190,"Columbia-Moberly-Mexico, MO",-92.34748599074766,39.022699418037384,0,0,0,0,0,0,0,0,0,0,0,0,0,0,0,0,0,0,0,0,0,0,0,0,0,0,0,0,0,0,0,0,0,0,0,0,0,0,0,0,0,0,0,0,0,0,0,0,0,0,0,0,0,0,0,1,1,3,8,10,15,17,21,24,39,39,51,56,61,68,70,73,73,84,84,85,87,87,88,90,92,93,96,101,101,106,107
192,192,"Columbia-Orangeburg-Newberry, SC",-80.95592623376811,34.03362787252344,0,0,0,0,0,0,0,0,0,0,0,0,0,0,0,0,0,0,0,0,0,0,0,0,0,0,0,0,0,0,0,0,0,0,0,0,0,0,0,0,0,0,0,0,0,1,1,1,5,7,4,5,12,12,17,28,35,45,71,89,92,127,135,155,155,179,210,238,306,341,390,440,481,532,620,647,693,693,824,894,943,968,972,1020,1044,1136,1173
194,194,"Columbus-Auburn-Opelika, GA-AL",-85.09419824356358,32.54152395825746,0,0,0,0,0,0,0,0,0,0,0,0,0,0,0,0,0,0,0,0,0,0,0,0,0,0,0,0,0,0,0,0,0,0,0,0,0,0,0,0,0,0,0,0,0,0,0,0,0,0,0,0,0,0,1,3,8,11,13,14,18,21,30,46,54,58,67,71,89,103,110,127,146,153,169,185,219,253,347,400,431,453,490,533,544,594,637
198,198,"Columbus-Marion-Zanesville, OH",-82.99806435967031,40.05257050117215,0,0,0,0,0,0,0,0,0,0,0,0,0,0,0,0,0,0,0,0,0,0,0,0,0,0,0,0,0,0,0,0,0,0,0,0,0,0,0,0,0,0,0,0,0,0,0,0,0,0,0,0,1,3,3,4,8,12,19,28,45,59,100,123,153,210,300,333,384,450,533,604,692,792,872,947,1025,1110,1193,1270,1341,1420,1567,1657,1856,2127,2457
200,200,"Columbus-West Point, MS",-88.58403836730768,33.54989881730769,0,0,0,0,0,0,0,0,0,0,0,0,0,0,0,0,0,0,0,0,0,0,0,0,0,0,0,0,0,0,0,0,0,0,0,0,0,0,0,0,0,0,0,0,0,0,0,0,0,0,0,0,0,0,0,0,0,0,0,1,5,7,7,7,9,11,12,12,12,15,16,17,19,20,22,24,26,28,32,36,39,42,45,45,48,51,52
204,204,"Corpus Christi-Kingsville-Alice, TX",-97.5580384215238,27.74861062247619,0,0,0,0,0,0,0,0,0,0,0,0,0,0,0,0,0,0,0,0,0,0,0,0,0,0,0,0,0,0,0,0,0,0,0,0,0,0,0,0,0,0,0,0,0,0,0,0,0,0,0,0,0,0,0,0,0,0,0,1,1,1,6,11,16,20,24,25,27,37,37,45,46,55,63,66,73,78,82,85,85,89,89,95,99,99,105
206,206,"Dallas-Fort Worth, TX-OK",-96.92380858005029,32.857168441601004,0,0,0,0,0,0,0,0,0,0,0,0,0,0,0,0,0,0,0,0,0,0,0,0,0,0,0,0,0,0,0,0,0,0,0,0,0,0,0,0,0,0,0,0,0,0,0,1,3,6,7,16,18,22,33,43,66,108,148,194,252,289,336,459,574,736,872,966,1140,1334,1484,1712,1916,2159,2249,2363,2585,2783,3061,3290,3467,3678,3897,4064,4279,4533,4772
209,209,"Davenport-Moline, IA-IL",-90.7195199732554,41.542449687032374,0,0,0,0,0,0,0,0,0,0,0,0,0,0,0,0,0,0,0,0,0,0,0,0,0,0,0,0,0,0,0,0,0,0,0,0,0,0,0,0,0,0,0,0,0,0,0,0,0,0,0,0,0,0,0,0,0,1,1,3,4,5,7,12,16,20,27,28,41,52,65,79,100,117,140,169,203,242,272,306,338,355,383,421,466,516,556
212,212,"Dayton-Springfield-Kettering, OH",-84.24770463002007,39.91484019560241,0,0,0,0,0,0,0,0,0,0,0,0,0,0,0,0,0,0,0,0,0,0,0,0,0,0,0,0,0,0,0,0,0,0,0,0,0,0,0,0,0,0,0,0,0,0,0,0,0,0,0,0,0,0,0,1,2,4,5,14,21,27,36,40,43,60,69,86,105,122,147,158,179,199,230,278,321,350,367,380,406,441,454,461,473,485,498
216,216,"Denver-Aurora, CO",-104.69784977024018,39.843916929568955,0,0,0,0,0,0,0,0,0,0,0,0,0,0,0,0,0,0,0,0,0,0,0,0,0,0,0,0,0,0,0,0,0,0,0,0,0,0,0,0,0,0,0,0,2,5,5,5,8,15,22,39,53,53,79,98,133,133,198,280,354,424,432,604,819,819,1000,1370,1370,1892,1892,2135,2405,2719,3246,3396,3615,3816,3816,4231,4534,5155,5479,5705,5711,5972,6287
217,217,"DeRidder-Fort Polk South, LA",-93.2959653657143,30.779931805714284,0,0,0,0,0,0,0,0,0,0,0,0,0,0,0,0,0,0,0,0,0,0,0,0,0,0,0,0,0,0,0,0,0,0,0,0,0,0,0,0,0,0,0,0,0,0,0,0,0,0,0,0,0,0,0,0,0,0,0,1,1,1,4,5,5,6,6,6,8,8,14,17,21,26,29,33,34,34,37,40,41,41,42,42,44,47,49
218,218,"Des Moines-Ames-West Des Moines, IA",-93.58033900129033,41.67858737404466,0,0,0,0,0,0,0,0,0,0,0,0,0,0,0,0,0,0,0,0,0,0,0,0,0,0,0,0,0,0,0,0,0,0,0,0,0,0,0,0,0,0,0,0,0,0,0,0,0,0,0,0,0,1,3,3,8,11,11,16,17,19,26,31,37,44,64,77,94,116,128,142,161,171,189,193,199,207,217,227,246,262,280,307,326,374,403
220,220,"Detroit-Warren-Ann Arbor, MI",-83.29113283921242,42.47361802477493,0,0,0,0,0,0,0,0,0,0,0,0,0,0,0,0,0,0,0,0,0,0,0,0,0,0,0,0,0,0,0,0,0,0,0,0,0,0,0,0,0,0,0,0,0,0,0,0,0,2,2,9,17,25,44,48,102,225,370,485,964,1230,1647,2112,2622,3365,4269,4990,5859,6856,8349,9661,11423,12719,13991,15367,16893,18148,19139,20185,21238,21743,22640,23810,24661,25189,26258
221,221,"Dixon-Sterling, IL",-89.69746855041667,41.75181838958334,0,0,0,0,0,0,0,0,0,0,0,0,0,0,0,0,0,0,0,0,0,0,0,0,0,0,0,0,0,0,0,0,0,0,0,0,0,0,0,0,0,0,0,0,0,0,0,0,0,0,0,0,0,0,0,1,1,1,1,1,1,1,1,1,1,2,2,3,4,5,5,6,9,17,20,20,24,27,32,36,37,39,42,43,44,45,48
222,222,"Dothan-Ozark, AL",-85.34655286520832,31.251284705,0,0,0,0,0,0,0,0,0,0,0,0,0,0,0,0,0,0,0,0,0,0,0,0,0,0,0,0,0,0,0,0,0,0,0,0,0,0,0,0,0,0,0,0,0,0,0,0,0,0,0,0,0,0,0,0,0,0,0,0,0,1,1,2,3,3,4,6,9,9,8,10,15,18,20,30,33,35,44,49,53,64,73,79,82,88,96
232,232,"Eau Claire-Menomonie, WI",-91.39164753254903,44.89968840607843,0,0,0,0,0,0,0,0,0,0,0,0,0,0,0,0,0,0,0,0,0,0,0,0,0,0,0,0,0,0,0,0,0,0,0,0,0,0,0,0,0,0,0,0,0,0,0,0,0,0,0,0,0,0,0,0,0,2,5,5,6,6,6,7,8,12,13,17,20,22,25,28,35,35,42,42,42,42,45,47,48,50,50,50,50,51,51
233,233,"Edwards-Glenwood Springs, CO",-106.84406677104377,39.589259814343436,0,0,0,0,0,0,0,0,0,0,0,0,0,0,0,0,0,0,0,0,0,0,0,0,0,0,0,0,0,0,0,0,0,0,0,0,0,0,0,0,0,0,0,0,0,0,0,0,2,7,17,24,31,31,36,46,52,52,79,96,104,116,118,148,186,186,211,239,239,290,290,362,393,416,423,441,459,462,462,483,525,556,564,576,576,593,594
236,236,"Elmira-Corning, NY",-77.18762820044445,42.22789096604444,0,0,0,0,0,0,0,0,0,0,0,0,0,0,0,0,0,0,0,0,0,0,0,0,0,0,0,0,0,0,0,0,0,0,0,0,0,0,0,0,0,0,0,0,0,0,0,0,0,0,0,0,0,0,0,0,0,0,2,2,2,6,11,11,18,23,25,32,34,39,60,65,81,96,111,122,124,142,151,176,177,207,207,211,220,224,225
238,238,"El Paso-Las Cruces, TX-NM",-106.30431070157171,31.836234179430257,0,0,0,0,0,0,0,0,0,0,0,0,0,0,0,0,0,0,0,0,0,0,0,0,0,0,0,0,0,0,0,0,0,0,0,0,0,0,0,0,0,0,0,0,0,0,0,0,0,0,0,0,1,1,2,3,3,6,6,7,9,19,23,29,41,44,55,59,57,71,75,96,108,125,142,162,167,188,231,269,296,318,342,350,400,447,509
240,240,"Erie-Meadville, PA",-80.051666135,41.91552299,0,0,0,0,0,0,0,0,0,0,0,0,0,0,0,0,0,0,0,0,0,0,0,0,0,0,0,0,0,0,0,0,0,0,0,0,0,0,0,0,0,0,0,0,0,0,0,0,0,0,0,0,0,0,0,0,1,1,1,1,2,3,5,5,6,8,9,10,17,18,20,22,22,24,26,36,37,37,45,49,54,54,55,57,58,62,64
244,244,"Fargo-Wahpeton, ND-MN",-97.05163360454107,46.89136300289855,0,0,0,0,0,0,0,0,0,0,0,0,0,0,0,0,0,0,0,0,0,0,0,0,0,0,0,0,0,0,0,0,0,0,0,0,0,0,0,0,0,0,0,0,0,0,0,0,0,0,0,0,0,0,0,1,1,1,2,2,3,3,6,9,11,16,23,25,29,39,42,52,56,63,69,86,91,99,112,124,133,156,166,175,188,206,207
246,246,"Fayetteville-Sanford-Lumberton, NC",-79.10805416522656,35.17552724429002,0,0,0,0,0,0,0,0,0,0,0,0,0,0,0,0,0,0,0,0,0,0,0,0,0,0,0,0,0,0,0,0,0,0,0,0,0,0,0,0,0,0,0,0,0,0,0,0,0,0,0,0,1,2,3,3,5,11,12,15,16,17,21,26,29,29,31,43,46,56,62,72,82,98,104,114,139,165,193,215,246,259,266,274,289,300,331
258,258,"Fort Wayne-Huntington-Auburn, IN",-85.11406909640226,41.143053523597736,0,0,0,0,0,0,0,0,0,0,0,0,0,0,0,0,0,0,0,0,0,0,0,0,0,0,0,0,0,0,0,0,0,0,0,0,0,0,0,0,0,0,0,0,0,0,0,0,2,2,2,2,2,2,2,2,2,4,6,6,6,6,9,10,11,25,29,33,36,39,52,60,76,87,96,124,130,136,151,170,188,202,267,228,250,302,353
260,260,"Fresno-Madera-Hanford, CA",-119.66693499595375,36.765457348439305,0,0,0,0,0,0,0,0,0,0,0,0,0,0,0,0,0,0,0,0,0,0,0,0,0,0,0,0,0,0,0,0,0,0,0,0,0,0,0,0,0,0,0,0,0,1,2,2,2,3,3,2,2,2,3,3,3,4,9,9,9,9,19,24,26,37,44,60,63,77,95,112,127,133,136,141,157,179,192,211,232,243,244,267,297,311,346
264,264,"Gainesville-Lake City, FL",-82.41674722428,29.742991048440008,0,0,0,0,0,0,0,0,0,0,0,0,0,0,0,0,0,0,0,0,0,0,0,0,0,0,0,0,0,0,0,0,0,0,0,0,0,0,0,0,0,0,0,0,0,0,0,0,0,1,1,2,1,1,1,4,7,11,15,25,37,38,40,48,52,60,71,76,84,92,95,101,116,128,140,148,161,167,176,200,208,253,225,236,241,248,250
266,266,"Grand Rapids-Kentwood-Muskegon, MI",-85.69254726815323,43.06799793853625,0,0,0,0,0,0,0,0,0,0,0,0,0,0,0,0,0,0,0,0,0,0,0,0,0,0,0,0,0,0,0,0,0,0,0,0,0,0,0,0,0,0,0,0,0,0,0,0,0,0,0,4,4,4,7,7,7,9,14,25,30,42,51,58,69,79,91,118,154,172,192,209,231,256,282,298,331,359,404,432,456,480,519,551,598,656,731
267,267,"Green Bay-Shawano, WI",-88.02023734221106,44.479714194572864,0,0,0,0,0,0,0,0,0,0,0,0,0,0,0,0,0,0,0,0,0,0,0,0,0,0,0,0,0,0,0,0,0,0,0,0,0,0,0,0,0,0,0,0,0,0,0,0,0,0,0,0,0,0,0,0,1,2,2,3,3,3,3,3,4,5,6,6,7,10,12,19,26,26,32,44,47,47,59,65,70,80,90,112,130,156,199
268,268,"Greensboro--Winston-Salem--High Point, NC",-80.0073806916179,36.01725735547331,0,0,0,0,0,0,0,0,0,0,0,0,0,0,0,0,0,0,0,0,0,0,0,0,0,0,0,0,0,0,0,0,0,0,0,0,0,0,0,0,0,0,0,0,0,0,0,0,0,0,3,2,2,2,2,3,3,9,13,23,27,29,40,47,54,83,103,120,132,156,198,233,280,310,330,365,409,425,444,457,485,492,531,545,541,557,581
272,272,"Greenville-Kinston-Washington, NC",-77.34894456129311,35.53004417603448,0,0,0,0,0,0,0,0,0,0,0,0,0,0,0,0,0,0,0,0,0,0,0,0,0,0,0,0,0,0,0,0,0,0,0,0,0,0,0,0,0,0,0,0,0,0,0,0,0,0,0,0,0,0,0,0,0,1,2,2,3,6,9,11,14,14,16,21,27,35,37,41,48,51,52,53,64,72,82,86,89,90,94,98,101,110,116
273,273,"Greenville-Spartanburg-Anderson, SC",-82.30372151385792,34.81048017692897,0,0,0,0,0,0,0,0,0,0,0,0,0,0,0,0,0,0,0,0,0,0,0,0,0,0,0,0,0,0,0,0,0,0,0,0,0,0,0,0,0,0,0,0,0,0,0,1,1,1,1,1,1,1,4,5,6,10,20,33,35,54,64,89,89,101,121,147,175,212,253,299,340,375,385,425,476,476,571,652,698,722,733,785,817,889,915
276,276,"Harrisburg-York-Lebanon, PA",-76.7477413484859,40.191887591957745,0,0,0,0,0,0,0,0,0,0,0,0,0,0,0,0,0,0,0,0,0,0,0,0,0,0,0,0,0,0,0,0,0,0,0,0,0,0,0,0,0,0,0,0,0,0,0,0,0,0,0,3,3,3,5,10,12,14,22,27,30,32,44,52,60,84,106,128,150,185,225,276,322,410,480,543,632,700,758,855,903,980,1050,1152,1213,1281,1420
277,277,"Harrisonburg-Staunton, VA",-78.89199122568807,38.42728837244648,0,0,0,0,0,0,0,0,0,0,0,0,0,0,0,0,0,0,0,0,0,0,0,0,0,0,0,0,0,0,0,0,0,0,0,0,0,0,0,0,0,0,0,0,0,0,0,0,0,0,0,1,1,1,1,1,1,1,1,1,3,3,4,5,6,9,9,9,11,13,22,31,40,47,52,55,57,72,77,109,146,147,161,176,194,216,327
278,278,"Hartford-East Hartford, CT",-72.6387199145849,41.74710829760472,0,0,0,0,0,0,0,0,0,0,0,0,0,0,0,0,0,0,0,0,0,0,0,0,0,0,0,0,0,0,0,0,0,0,0,0,0,0,0,0,0,0,0,0,0,0,0,0,0,0,0,0,1,2,4,7,12,25,39,39,77,89,121,167,202,262,312,374,454,532,625,709,889,974,1012,1185,1391,1391,1960,2163,2478,2585,2999,3153,3401,3749,3987
279,279,"Hattiesburg-Laurel, MS",-89.28175093115016,31.352926972779553,0,0,0,0,0,0,0,0,0,0,0,0,0,0,0,0,0,0,0,0,0,0,0,0,0,0,0,0,0,0,0,0,0,0,0,0,0,0,0,0,0,0,0,0,0,0,0,0,0,0,1,3,3,3,3,3,4,6,6,7,13,14,18,19,22,23,28,31,31,37,48,51,65,76,89,97,116,118,145,162,187,206,228,249,266,296,313
284,284,"Hot Springs-Malvern, AR",-93.13563323721739,34.55884573826087,0,0,0,0,0,0,0,0,0,0,0,0,0,0,0,0,0,0,0,0,0,0,0,0,0,0,0,0,0,0,0,0,0,0,0,0,0,0,0,0,0,0,0,0,0,0,0,0,0,0,0,0,0,0,0,0,0,0,0,0,3,9,10,17,19,21,21,26,27,32,33,42,42,45,48,48,53,58,69,74,80,89,109,110,111,113,115
288,288,"Houston-The Woodlands, TX",-95.42492755570545,29.792856286536626,0,0,0,0,0,0,0,0,0,0,0,0,0,0,0,0,0,0,0,0,0,0,0,0,0,0,0,0,0,0,0,0,0,0,0,0,0,0,0,0,0,0,0,3,4,8,11,12,12,14,19,21,27,27,30,35,52,67,108,136,148,169,258,325,428,479,748,871,950,1177,1394,1581,1803,2059,2303,2825,3231,3564,4347,4663,5076,5198,5354,5616,5953,6216,6485
290,290,"Huntsville-Decatur, AL",-86.67083480324759,34.71767750414791,0,0,0,0,0,0,0,0,0,0,0,0,0,0,0,0,0,0,0,0,0,0,0,0,0,0,0,0,0,0,0,0,0,0,0,0,0,0,0,0,0,0,0,0,0,0,0,0,0,0,0,0,2,1,1,2,2,6,8,10,17,22,27,46,68,72,96,115,131,144,150,163,179,184,198,211,220,224,251,258,267,270,274,277,278,288,311
292,292,"Idaho Falls-Rexburg-Blackfoot, ID",-111.7557110047619,43.541729067380956,0,0,0,0,0,0,0,0,0,0,0,0,0,0,0,0,0,0,0,0,0,0,0,0,0,0,0,0,0,0,0,0,0,0,0,0,0,0,0,0,0,0,0,0,0,0,0,0,0,0,0,0,0,0,0,1,1,1,3,3,3,4,6,6,7,6,7,7,8,12,12,12,13,15,16,17,18,19,19,24,24,25,26,27,29,41,42
294,294,"Indianapolis-Carmel-Muncie, IN",-86.09903183305138,39.76777476452442,0,0,0,0,0,0,0,0,0,0,0,0,0,0,0,0,0,0,0,0,0,0,0,0,0,0,0,0,0,0,0,0,0,0,0,0,0,0,0,0,0,0,0,0,1,1,2,3,4,7,9,9,10,14,17,18,23,32,45,77,138,138,252,345,456,706,873,1062,1269,1513,1807,2127,2361,2682,2999,3352,3702,3982,4201,4583,4884,5168,5349,5490,5719,5923,6266
296,296,"Ithaca-Cortland, NY",-76.40253990222222,42.47474140347222,0,0,0,0,0,0,0,0,0,0,0,0,0,0,0,0,0,0,0,0,0,0,0,0,0,0,0,0,0,0,0,0,0,0,0,0,0,0,0,0,0,0,0,0,0,0,0,0,0,0,0,0,1,1,2,2,6,6,11,11,17,17,18,21,26,36,55,64,80,83,86,91,101,107,109,116,119,121,123,124,125,134,134,135,141,142,144
297,297,"Jackson-Brownsville, TN",-88.89480162267242,35.68167181827586,0,0,0,0,0,0,0,0,0,0,0,0,0,0,0,0,0,0,0,0,0,0,0,0,0,0,0,0,0,0,0,0,0,0,0,0,0,0,0,0,0,0,0,0,0,0,0,0,0,0,0,0,0,0,0,0,0,0,0,0,2,2,4,5,6,7,7,10,10,16,18,24,31,35,39,45,69,69,78,93,94,98,105,111,111,117,116
298,298,"Jackson-Vicksburg-Brookhaven, MS",-90.28609265457276,32.31674025034642,0,0,0,0,0,0,0,0,0,0,0,0,0,0,0,0,0,0,0,0,0,0,0,0,0,0,0,0,0,0,0,0,0,0,0,0,0,0,0,0,0,0,0,0,0,0,0,0,0,0,0,0,1,1,4,8,8,11,19,19,52,59,77,96,112,133,153,176,176,219,262,280,329,343,392,406,438,465,529,586,614,654,676,695,765,818,866
300,300,"Jacksonville-St. Marys-Palatka, FL-GA",-81.68190075251289,30.210289275711123,0,0,0,0,0,0,0,0,0,0,0,0,0,0,0,0,0,0,0,0,0,0,0,0,0,0,0,0,0,0,0,0,0,0,0,0,0,0,0,0,0,0,0,0,0,0,0,0,0,1,2,5,3,9,9,17,22,24,29,43,67,82,90,106,150,175,214,233,285,363,384,493,562,649,694,768,836,882,944,982,1059,1118,1147,1180,1217,1274,1357
304,304,"Johnson City-Kingsport-Bristol, TN-VA",-82.40598070696772,36.46916974251612,0,0,0,0,0,0,0,0,0,0,0,0,0,0,0,0,0,0,0,0,0,0,0,0,0,0,0,0,0,0,0,0,0,0,0,0,0,0,0,0,0,0,0,0,0,0,0,0,0,1,1,1,1,1,1,1,1,1,3,3,3,8,9,10,15,21,26,29,29,36,48,49,54,57,64,73,84,92,108,119,128,134,144,147,146,150,155
306,306,"Johnstown-Somerset, PA",-78.87578547827586,40.22447396586207,0,0,0,0,0,0,0,0,0,0,0,0,0,0,0,0,0,0,0,0,0,0,0,0,0,0,0,0,0,0,0,0,0,0,0,0,0,0,0,0,0,0,0,0,0,0,0,0,0,0,0,0,0,0,0,0,0,0,0,0,0,1,2,3,3,3,3,3,4,4,6,7,7,9,11,13,14,16,17,21,23,25,27,27,28,28,29
308,308,"Jonesboro-Paragould, AR",-90.6298414817857,35.815264182142855,0,0,0,0,0,0,0,0,0,0,0,0,0,0,0,0,0,0,0,0,0,0,0,0,0,0,0,0,0,0,0,0,0,0,0,0,0,0,0,0,0,0,0,0,0,0,0,0,0,0,0,0,0,0,0,0,0,0,0,0,3,8,8,8,8,8,8,10,10,14,17,18,20,22,24,26,29,35,40,42,44,44,49,49,51,55,56
309,309,"Joplin-Miami, MO-OK",-94.52510950819672,37.014641339508195,0,0,0,0,0,0,0,0,0,0,0,0,0,0,0,0,0,0,0,0,0,0,0,0,0,0,0,0,0,0,0,0,0,0,0,0,0,0,0,0,0,0,0,0,0,0,0,0,0,0,0,0,0,0,0,0,0,0,0,1,1,1,1,3,6,6,12,14,16,19,19,21,23,27,28,31,35,36,39,44,46,44,56,58,58,61,61
310,310,"Kalamazoo-Battle Creek-Portage, MI",-85.26355566059748,42.18559963996856,0,0,0,0,0,0,0,0,0,0,0,0,0,0,0,0,0,0,0,0,0,0,0,0,0,0,0,0,0,0,0,0,0,0,0,0,0,0,0,0,0,0,0,0,0,0,0,0,0,0,0,0,0,0,0,0,0,0,0,1,2,6,7,11,17,20,26,34,44,47,60,72,87,98,118,125,137,152,173,187,196,206,224,235,259,291,318
312,312,"Kansas City-Overland Park-Kansas City, MO-KS",-94.64202851239742,39.04576037895045,0,0,0,0,0,0,0,0,0,0,0,0,0,0,0,0,0,0,0,0,0,0,0,0,0,0,0,0,0,0,0,0,0,0,0,0,0,0,0,0,0,0,0,0,0,0,1,1,1,1,4,5,7,7,10,18,25,40,65,73,82,105,125,176,249,300,362,411,460,559,624,701,751,871,891,1029,1085,1177,1245,1348,1476,1541,1596,1657,1693,1807,1877
313,313,"Kennewick-Richland-Walla Walla, WA",-119.25171022525879,46.33760529401656,0,0,0,0,0,0,0,0,0,0,0,0,0,0,0,0,0,0,0,0,0,0,0,0,0,0,0,0,0,0,0,0,0,0,0,0,0,0,0,0,0,0,0,0,0,0,0,0,0,0,0,0,0,0,0,0,1,1,5,10,11,15,15,21,28,56,58,77,145,128,148,179,189,205,229,251,259,270,318,347,371,382,402,421,474,461,483
314,314,"Kerrville-Fredericksburg, TX",-99.268794982,30.111968237999996,0,0,0,0,0,0,0,0,0,0,0,0,0,0,0,0,0,0,0,0,0,0,0,0,0,0,0,0,0,0,0,0,0,0,0,0,0,0,0,0,0,0,0,0,0,0,0,0,0,0,0,0,0,0,0,0,0,0,0,0,0,0,0,0,0,0,0,0,0,2,2,2,3,4,4,5,3,3,3,3,3,3,3,3,4,5,5
315,315,"Knoxville-Morristown-Sevierville, TN",-83.90922073731427,35.95713121342857,0,0,0,0,0,0,0,0,0,0,0,0,0,0,0,0,0,0,0,0,0,0,0,0,0,0,0,0,0,0,0,0,0,0,0,0,0,0,0,0,0,0,0,0,0,0,0,0,0,0,1,2,3,3,4,5,5,5,7,15,17,27,33,41,52,66,74,83,102,134,154,175,189,198,217,227,264,274,290,304,312,314,327,332,332,343,350
316,316,"Kokomo-Peru, IN",-86.09603553902438,40.558042909268295,0,0,0,0,0,0,0,0,0,0,0,0,0,0,0,0,0,0,0,0,0,0,0,0,0,0,0,0,0,0,0,0,0,0,0,0,0,0,0,0,0,0,0,0,0,0,0,0,0,1,1,1,1,1,2,2,2,5,5,5,7,7,7,7,7,8,10,13,17,19,23,28,30,35,34,39,46,56,55,60,61,64,66,67,77,83,82
318,318,"Lafayette-Opelousas-Morgan City, LA",-91.9066722697389,30.120955785639687,0,0,0,0,0,0,0,0,0,0,0,0,0,0,0,0,0,0,0,0,0,0,0,0,0,0,0,0,0,0,0,0,0,0,0,0,0,0,0,0,0,0,0,0,0,0,0,0,0,0,1,0,0,0,0,0,0,2,10,12,12,17,22,34,49,84,99,102,159,286,377,547,628,551,598,654,699,769,828,910,947,998,1032,1054,1086,1118,1149
320,320,"Lafayette-West Lafayette-Frankfort, IN",-86.83749501214285,40.394046386190475,0,0,0,0,0,0,0,0,0,0,0,0,0,0,0,0,0,0,0,0,0,0,0,0,0,0,0,0,0,0,0,0,0,0,0,0,0,0,0,0,0,0,0,0,0,0,0,0,0,0,0,0,0,0,0,0,0,1,2,2,2,2,3,4,8,10,14,15,19,19,24,24,33,36,38,43,46,51,55,59,61,66,66,69,71,80,84
324,324,"Lake Charles-Jennings, LA",-93.27548968776861,30.2330459468595,0,0,0,0,0,0,0,0,0,0,0,0,0,0,0,0,0,0,0,0,0,0,0,0,0,0,0,0,0,0,0,0,0,0,0,0,0,0,0,0,0,0,0,0,0,0,0,0,0,0,0,0,0,0,0,0,0,0,3,4,4,4,5,12,16,23,29,37,45,70,99,121,133,144,152,180,212,220,240,261,285,305,317,322,332,350,363
332,332,"Las Vegas-Henderson, NV",-115.02413108372599,36.22850269795579,0,0,0,0,0,0,0,0,0,0,0,0,0,0,0,0,0,0,0,0,0,0,0,0,0,0,0,0,0,0,0,0,0,0,0,0,0,0,0,0,0,0,0,1,1,1,2,2,2,5,8,16,16,16,35,42,42,69,126,126,126,126,213,250,351,444,444,529,754,870,965,1129,1285,1425,1526,1615,1741,1885,2019,2154,2154,2334,2454,2524,2574,2578,2759
336,336,"Lexington-Fayette--Richmond--Frankfort, KY",-84.4541690757703,38.0251307535014,0,0,0,0,0,0,0,0,0,0,0,0,0,0,0,0,0,0,0,0,0,0,0,0,0,0,0,0,0,0,0,0,0,0,0,0,0,0,0,0,0,0,0,0,1,1,1,1,2,2,3,5,5,7,8,11,12,12,18,18,18,29,30,43,43,43,43,112,130,166,166,172,172,200,206,206,208,208,243,243,243,309,309,337,344,357,357
338,338,"Lima-Van Wert-Celina, OH",-84.20882092782179,40.70031278485149,0,0,0,0,0,0,0,0,0,0,0,0,0,0,0,0,0,0,0,0,0,0,0,0,0,0,0,0,0,0,0,0,0,0,0,0,0,0,0,0,0,0,0,0,0,0,0,0,0,0,0,0,0,0,0,0,0,0,0,0,0,0,0,1,1,2,6,9,9,10,15,20,24,29,33,37,40,44,45,47,55,62,66,76,84,91,101
339,339,"Lincoln-Beatrice, NE",-96.69334440606741,40.63257234898876,0,0,0,0,0,0,0,0,0,0,0,0,0,0,0,0,0,0,0,0,0,0,0,0,0,0,0,0,0,0,0,0,0,0,0,0,0,0,0,0,0,0,0,0,0,0,0,0,0,0,0,0,0,0,0,0,0,0,1,2,2,2,3,4,4,4,5,5,8,8,9,13,16,20,28,42,58,63,69,74,76,78,81,84,84,86,89
340,340,"Little Rock-North Little Rock, AR",-92.16574739741935,34.6172281375672,0,0,0,0,0,0,0,0,0,0,0,0,0,0,0,0,0,0,0,0,0,0,0,0,0,0,0,0,0,0,0,0,0,0,0,0,0,0,0,0,0,0,0,0,0,0,0,0,0,0,0,0,3,3,3,3,3,3,3,3,17,105,112,136,147,160,171,175,178,207,230,254,293,305,346,359,400,419,466,483,513,531,595,626,679,699,744
348,348,"Los Angeles-Long Beach, CA",-117.75393189093293,34.20724742144704,0,0,0,0,2,2,2,2,2,2,2,2,2,2,2,2,2,2,2,2,2,2,2,2,2,2,2,2,2,2,2,2,2,2,2,2,2,2,2,2,2,2,10,14,16,17,18,19,30,39,48,59,86,86,131,193,248,324,413,427,573,754,937,1144,1694,2050,2210,2629,3449,4143,4827,5608,6251,6585,8181,8799,9656,10564,11229,11958,12213,12909,13536,14601,15196,15764,16786
350,350,"Louisville/Jefferson County--Elizabethtown--Bardstown, KY-IN",-85.72217547795212,38.23903791173758,0,0,0,0,0,0,0,0,0,0,0,0,0,0,0,0,0,0,0,0,0,0,0,0,0,0,0,0,0,0,0,0,0,0,0,0,0,0,0,0,0,0,0,0,0,0,0,1,1,1,2,2,5,5,8,9,11,11,34,38,37,47,52,57,63,72,151,167,202,308,316,372,389,498,526,531,600,611,713,725,745,918,983,997,1053,1108,1128
352,352,"Lubbock-Plainview-Levelland, TX",-101.83749639538107,33.616702767321016,0,0,0,0,0,0,0,0,0,0,0,0,0,0,0,0,0,0,0,0,0,0,0,0,0,0,0,0,0,0,0,0,0,0,0,0,0,0,0,0,0,0,0,0,0,0,0,0,0,0,0,0,0,0,0,0,3,3,3,12,12,12,15,19,25,37,40,51,61,87,110,124,133,154,174,201,202,213,240,261,279,301,338,348,362,399,433
356,356,"Macon-Bibb County--Warner Robins, GA",-83.70802912129929,32.669281476125285,0,0,0,0,0,0,0,0,0,0,0,0,0,0,0,0,0,0,0,0,0,0,0,0,0,0,0,0,0,0,0,0,0,0,0,0,0,0,0,0,0,0,0,0,0,0,0,0,0,0,0,0,0,0,0,0,1,3,5,6,7,8,14,21,28,32,36,41,45,65,76,91,108,119,133,139,161,185,202,213,225,232,254,292,302,344,431
357,357,"Madison-Janesville-Beloit, WI",-89.41427490319192,43.052271875393934,0,0,0,0,0,0,0,0,0,0,0,0,0,0,0,0,0,0,0,0,0,0,0,0,0,0,0,0,0,0,0,0,0,0,0,0,0,0,0,0,0,0,0,0,0,0,0,0,2,2,4,5,6,6,10,19,23,32,42,60,72,82,86,107,158,190,209,225,237,266,270,298,319,336,357,372,382,396,413,426,442,454,465,470,485,487,495
359,359,"Mankato-New Ulm, MN",-94.22567771486486,44.134655214324326,0,0,0,0,0,0,0,0,0,0,0,0,0,0,0,0,0,0,0,0,0,0,0,0,0,0,0,0,0,0,0,0,0,0,0,0,0,0,0,0,0,0,0,0,0,0,0,0,0,0,0,0,0,0,0,0,4,4,4,5,7,8,8,8,9,10,10,11,12,14,14,15,15,21,22,25,33,33,34,35,35,35,35,36,37,37,37
360,360,"Mansfield-Ashland-Bucyrus, OH",-82.65085291289157,40.80297604253012,0,0,0,0,0,0,0,0,0,0,0,0,0,0,0,0,0,0,0,0,0,0,0,0,0,0,0,0,0,0,0,0,0,0,0,0,0,0,0,0,0,0,0,0,0,0,0,0,0,0,0,0,0,0,0,0,1,2,2,2,2,2,6,6,6,8,10,9,12,13,15,17,19,24,29,31,32,37,43,46,52,57,65,67,73,79,83
361,361,"Marinette-Iron Mountain, WI-MI",-88.00916198499999,45.685178506,0,0,0,0,0,0,0,0,0,0,0,0,0,0,0,0,0,0,0,0,0,0,0,0,0,0,0,0,0,0,0,0,0,0,0,0,0,0,0,0,0,0,0,0,0,0,0,0,0,0,0,0,0,0,0,0,0,0,0,0,0,0,0,0,0,1,1,1,1,1,2,3,3,3,4,7,7,7,8,9,9,9,9,10,10,10,10
362,362,"Martin-Union City, TN",-88.96522707285713,36.33231211428572,0,0,0,0,0,0,0,0,0,0,0,0,0,0,0,0,0,0,0,0,0,0,0,0,0,0,0,0,0,0,0,0,0,0,0,0,0,0,0,0,0,0,0,0,0,0,0,0,0,0,0,0,0,0,0,0,0,0,0,0,0,1,0,0,0,0,1,2,2,2,3,3,3,3,7,7,8,9,9,10,12,12,14,14,14,14,14
365,365,"McAllen-Edinburg, TX",-98.19907748206612,26.399021959008266,0,0,0,0,0,0,0,0,0,0,0,0,0,0,0,0,0,0,0,0,0,0,0,0,0,0,0,0,0,0,0,0,0,0,0,0,0,0,0,0,0,0,0,0,0,0,0,0,0,0,0,0,0,0,0,0,0,0,0,0,2,2,2,7,10,13,20,29,30,40,50,67,84,91,92,106,120,135,146,153,188,197,197,205,224,232,242
366,366,"Medford-Grants Pass, OR",-122.96352784179105,42.41344900865672,0,0,0,0,0,0,0,0,0,0,0,0,0,0,0,0,0,0,0,0,0,0,0,0,0,0,0,0,0,0,0,0,0,0,0,0,0,0,0,0,0,0,0,0,0,1,2,2,2,2,2,2,2,2,2,2,2,2,2,3,3,3,4,6,8,10,13,25,30,31,32,39,39,39,46,46,55,55,60,60,61,64,66,66,66,66,67
368,368,"Memphis-Forrest City, TN-MS-AR",-89.94353479047528,35.13804998592415,0,0,0,0,0,0,0,0,0,0,0,0,0,0,0,0,0,0,0,0,0,0,0,0,0,0,0,0,0,0,0,0,0,0,0,0,0,0,0,0,0,0,0,0,0,0,1,1,1,1,2,2,2,2,2,3,6,12,10,59,99,131,180,230,283,331,394,503,537,600,695,856,880,949,1033,1080,1178,1265,1387,1497,1576,1670,1811,1879,1897,2086,2083
370,370,"Miami-Port St. Lucie-Fort Lauderdale, FL",-80.5244848017632,25.933274758719193,0,0,0,0,0,0,0,0,0,0,0,0,0,0,0,0,0,0,0,0,0,0,0,0,0,0,0,0,0,0,0,0,0,0,0,0,0,0,0,0,0,0,0,0,0,2,2,3,4,4,8,15,33,54,54,101,167,228,299,397,530,651,774,905,1332,1631,2191,2451,3311,4019,4130,5265,6009,6830,7273,7906,8690,9263,9820,10530,11125,12056,12771,13154,13697,14136,15092
372,372,"Midland-Odessa, TX",-102.31692707959185,31.877929345408166,0,0,0,0,0,0,0,0,0,0,0,0,0,0,0,0,0,0,0,0,0,0,0,0,0,0,0,0,0,0,0,0,0,0,0,0,0,0,0,0,0,0,0,0,0,0,0,0,0,0,0,0,0,0,0,0,0,0,1,1,1,1,3,4,7,8,13,16,21,27,28,29,45,45,51,52,59,62,72,72,73,77,77,79,83,87,98
376,376,"Milwaukee-Racine-Waukesha, WI",-88.04113964553216,43.00687693924612,0,0,0,0,0,0,0,0,0,0,0,0,0,0,0,0,0,0,0,0,0,0,0,0,0,0,0,0,0,0,0,0,0,0,0,0,0,0,0,0,0,0,0,0,0,0,0,0,0,0,1,4,10,10,17,29,56,84,127,168,248,276,322,428,471,555,713,793,825,947,1042,1157,1349,1349,1559,1641,1731,1832,1949,2080,2177,2258,2304,2388,2493,2605,2706
378,378,"Minneapolis-St. Paul, MN-WI",-93.35176352057395,44.983490393513144,0,0,0,0,0,0,0,0,0,0,0,0,0,0,0,0,0,0,0,0,0,0,0,0,0,0,0,0,0,0,0,0,0,0,0,0,0,0,0,0,0,0,0,0,1,1,1,2,3,6,9,10,20,20,49,53,64,74,93,105,125,185,211,226,257,293,327,366,421,453,489,520,547,585,633,665,715,773,829,887,959,1099,1100,1122,1238,1239,1446
380,380,"Mobile-Daphne-Fairhope, AL",-88.14051656069105,30.7886198200542,0,0,0,0,0,0,0,0,0,0,0,0,0,0,0,0,0,0,0,0,0,0,0,0,0,0,0,0,0,0,0,0,0,0,0,0,0,0,0,0,0,0,0,0,0,0,0,0,0,0,0,0,0,1,1,1,1,2,6,5,5,6,11,15,25,30,41,59,66,74,79,94,136,148,159,186,250,300,376,428,486,537,552,608,651,691,738
384,384,"Monroe-Ruston, LA",-92.20108406456592,32.54491673300643,0,0,0,0,0,0,0,0,0,0,0,0,0,0,0,0,0,0,0,0,0,0,0,0,0,0,0,0,0,0,0,0,0,0,0,0,0,0,0,0,0,0,0,0,0,0,0,0,0,0,0,0,0,0,0,0,0,0,0,2,2,11,9,15,27,38,49,59,63,80,106,124,155,221,229,290,339,357,391,427,463,484,503,511,540,573,622
388,388,"Montgomery-Selma-Alexander City, AL",-86.1563563740156,32.50741947198831,0,0,0,0,0,0,0,0,0,0,0,0,0,0,0,0,0,0,0,0,0,0,0,0,0,0,0,0,0,0,0,0,0,0,0,0,0,0,0,0,0,0,0,0,0,0,0,0,0,0,0,1,2,2,3,4,6,8,8,9,9,11,20,32,42,45,46,54,55,68,77,100,124,129,147,153,165,172,203,224,247,315,337,404,429,500,513
390,390,"Morgantown-Fairmont, WV",-80.09268702671757,39.58542813870229,0,0,0,0,0,0,0,0,0,0,0,0,0,0,0,0,0,0,0,0,0,0,0,0,0,0,0,0,0,0,0,0,0,0,0,0,0,0,0,0,0,0,0,0,0,0,0,0,0,0,0,0,0,0,0,0,0,0,1,1,2,2,5,17,21,27,27,35,38,39,43,48,50,58,68,74,91,104,113,116,116,119,123,125,130,130,131
393,393,"Moses Lake-Othello, WA",-119.24431732774566,47.15562065323699,0,0,0,0,0,0,0,0,0,0,0,0,0,0,0,0,0,0,0,0,0,0,0,0,0,0,0,0,0,0,0,0,0,0,0,0,0,0,0,0,0,0,0,1,1,1,1,1,1,1,1,1,2,2,3,7,8,8,8,11,18,24,24,28,36,42,49,55,66,76,77,93,95,97,103,114,115,123,125,131,140,150,157,161,161,169,173
394,394,"Mount Pleasant-Alma, MI",-84.81474044716981,43.59465360962263,0,0,0,0,0,0,0,0,0,0,0,0,0,0,0,0,0,0,0,0,0,0,0,0,0,0,0,0,0,0,0,0,0,0,0,0,0,0,0,0,0,0,0,0,0,0,0,0,0,0,0,0,0,0,0,0,0,0,0,0,0,0,2,2,3,5,6,7,8,9,10,13,14,14,16,21,28,27,34,43,45,46,48,49,50,52,53
396,396,"Myrtle Beach-Conway, SC-NC",-78.92725392696204,33.874115206244724,0,0,0,0,0,0,0,0,0,0,0,0,0,0,0,0,0,0,0,0,0,0,0,0,0,0,0,0,0,0,0,0,0,0,0,0,0,0,0,0,0,0,0,0,0,0,0,0,0,0,0,0,1,1,4,5,6,7,12,13,17,26,31,32,33,38,46,53,57,66,72,88,90,104,106,123,139,139,160,182,198,199,213,219,218,225,237
400,400,"Nashville-Davidson--Murfreesboro, TN",-86.67687763763213,36.15128450380042,0,0,0,0,0,0,0,0,0,0,0,0,0,0,0,0,0,0,0,0,0,0,0,0,0,0,0,0,0,0,0,0,0,0,0,0,0,0,0,0,0,0,0,1,1,1,2,2,2,7,14,20,25,25,44,64,87,110,153,214,260,287,399,423,490,570,676,723,859,1051,1256,1545,1524,1645,1779,1846,2010,2125,2229,2343,2480,2753,2649,2709,2709,3020,2876
404,404,"New Bern-Morehead City, NC",-76.91285367142858,35.038222768000004,0,0,0,0,0,0,0,0,0,0,0,0,0,0,0,0,0,0,0,0,0,0,0,0,0,0,0,0,0,0,0,0,0,0,0,0,0,0,0,0,0,0,0,0,0,0,0,0,0,0,0,0,1,1,1,1,1,2,3,7,7,7,8,8,8,9,11,12,17,19,22,26,32,33,34,46,48,44,48,50,56,59,62,64,68,69,70
406,406,"New Orleans-Metairie-Hammond, LA-MS",-90.04363334081845,29.987131907616945,0,0,0,0,0,0,0,0,0,0,0,0,0,0,0,0,0,0,0,0,0,0,0,0,0,0,0,0,0,0,0,0,0,0,0,0,0,0,0,0,0,0,0,0,0,0,0,0,0,5,17,28,70,84,107,186,246,324,472,651,687,945,1112,1365,1703,2013,2413,2506,2822,3690,4504,6666,7446,8820,9109,10247,11263,11698,12458,12987,13429,13679,13898,14199,14436,14696,14943
408,408,"New York-Newark, NY-NJ-CT-PA",-73.8787816083305,40.84347136584898,0,0,0,0,0,0,0,0,0,0,0,0,0,0,0,0,0,0,0,0,0,0,0,0,0,0,0,0,0,0,0,0,0,0,0,0,0,0,0,0,1,2,11,25,33,78,109,145,162,243,352,471,657,687,1126,1804,3364,6259,8629,12650,17196,22920,28389,34067,42840,51297,60459,69487,78962,90729,101243,112552,127763,143467,155974,169016,181844,196286,211591,226031,238183,249306,259221,270047,284215,298064,308577
412,412,"North Port-Sarasota, FL",-82.24011473111406,27.26000806157825,0,0,0,0,0,0,0,0,0,0,0,0,0,0,0,0,0,0,0,0,0,0,0,0,0,0,0,0,0,0,0,0,0,0,0,0,0,0,0,0,0,0,0,0,0,0,1,3,3,3,3,5,6,6,6,10,14,16,20,29,31,40,46,53,68,79,97,106,125,160,171,245,280,315,335,364,417,445,463,511,549,595,623,647,674,718,754
416,416,"Oklahoma City-Shawnee, OK",-97.40833249190526,35.413612348873684,0,0,0,0,0,0,0,0,0,0,0,0,0,0,0,0,0,0,0,0,0,0,0,0,0,0,0,0,0,0,0,0,0,0,0,0,0,0,0,0,0,0,0,0,0,0,0,0,0,0,0,0,1,1,4,9,9,32,35,37,44,50,70,93,128,156,176,195,224,258,330,399,434,498,513,542,606,629,731,773,800,828,852,888,918,950,950
420,420,"Omaha-Council Bluffs-Fremont, NE-IA",-96.13114144209842,41.302546100673574,0,0,0,0,0,0,0,0,0,0,0,0,0,0,0,0,0,0,0,0,0,0,0,0,0,0,0,0,0,0,0,0,0,0,0,0,0,0,0,0,0,0,0,0,1,1,1,3,4,5,10,15,19,18,19,23,23,27,27,31,45,45,58,62,66,73,84,90,115,140,160,179,193,207,223,238,241,275,293,312,329,342,348,366,368,375,386
422,422,"Orlando-Lakeland-Deltona, FL",-81.3759359845062,28.504892282637172,0,0,0,0,0,0,0,0,0,0,0,0,0,0,0,0,0,0,0,0,0,0,0,0,0,0,0,0,0,0,0,0,0,0,0,0,0,0,0,0,0,0,0,0,0,0,1,1,2,2,3,4,7,9,9,27,37,58,70,91,113,144,158,211,291,392,492,585,700,874,911,1235,1402,1525,1650,1722,1815,1923,2048,2154,2213,2290,2433,2497,2587,2720,2825
424,424,"Paducah-Mayfield, KY-IL",-88.68940877476192,36.91994370761905,0,0,0,0,0,0,0,0,0,0,0,0,0,0,0,0,0,0,0,0,0,0,0,0,0,0,0,0,0,0,0,0,0,0,0,0,0,0,0,0,0,0,0,0,0,0,0,0,0,0,0,0,0,0,0,0,0,0,0,0,0,0,1,2,2,2,2,3,5,8,8,9,9,13,17,17,17,17,24,24,24,33,33,41,47,61,63
425,425,"Parkersburg-Marietta-Vienna, WV-OH",-81.49695887279071,39.363558152674415,0,0,0,0,0,0,0,0,0,0,0,0,0,0,0,0,0,0,0,0,0,0,0,0,0,0,0,0,0,0,0,0,0,0,0,0,0,0,0,0,0,0,0,0,0,0,0,0,0,0,0,0,0,0,0,0,0,0,0,0,1,1,1,2,2,4,4,5,6,6,6,8,10,14,19,27,41,45,49,55,56,59,61,67,71,80,86
426,426,"Pensacola-Ferry Pass, FL-AL",-87.26163465313364,30.696074666359447,0,0,0,0,0,0,0,0,0,0,0,0,0,0,0,0,0,0,0,0,0,0,0,0,0,0,0,0,0,0,0,0,0,0,0,0,0,0,0,0,0,0,0,1,1,1,1,1,1,1,1,1,1,1,2,2,1,3,4,4,8,13,14,21,28,33,43,51,73,139,139,150,163,170,183,197,236,252,260,305,320,341,362,371,384,406,434
428,428,"Philadelphia-Reading-Camden, PA-NJ-DE-MD",-75.24171393427726,39.97491894324503,0,0,0,0,0,0,0,0,0,0,0,0,0,0,0,0,0,0,0,0,0,0,0,0,0,0,0,0,0,0,0,0,0,0,0,0,0,0,0,0,0,0,0,0,1,1,5,6,13,17,21,39,46,46,70,101,150,196,274,335,428,605,828,1071,1473,1903,2268,2678,3108,3642,4451,5305,6215,7487,8320,9588,10825,12186,13625,15043,16549,17667,18916,19850,20913,22263,23667
429,429,"Phoenix-Mesa, AZ",-112.39584877935901,33.31338347049599,0,0,0,0,1,1,1,1,1,1,1,1,1,1,1,1,1,1,1,1,1,1,1,1,1,1,1,1,1,1,1,1,1,1,1,1,1,1,1,1,1,1,1,1,2,4,4,4,5,8,8,8,9,9,13,14,19,32,44,63,97,156,221,274,334,435,496,597,755,851,937,1032,1128,1263,1432,1542,1618,1686,1829,1882,2040,2126,2191,2234,2331,2466,2621
430,430,"Pittsburgh-New Castle-Weirton, PA-OH-WV",-79.93419269402821,40.501045331943544,0,0,0,0,0,0,0,0,0,0,0,0,0,0,0,0,0,0,0,0,0,0,0,0,0,0,0,0,0,0,0,0,0,0,0,0,0,0,0,0,0,0,0,0,0,0,0,0,0,0,0,1,3,3,7,13,17,25,38,44,56,70,90,139,214,259,374,442,500,583,636,727,844,972,1068,1143,1269,1336,1405,1490,1586,1630,1682,1707,1739,1785,1842
438,438,"Portland-Lewiston-South Portland, ME",-70.449028222513,43.752618452166374,0,0,0,0,0,0,0,0,0,0,0,0,0,0,0,0,0,0,0,0,0,0,0,0,0,0,0,0,0,0,0,0,0,0,0,0,0,0,0,0,0,0,0,0,0,0,0,0,0,0,1,1,1,2,14,21,29,30,43,53,67,84,96,118,126,135,170,204,222,246,246,300,342,359,372,393,404,419,439,452,469,479,493,527,541,554,577
440,440,"Portland-Vancouver-Salem, OR-WA",-122.64651884882682,45.38683781634078,0,0,0,0,0,0,0,0,0,0,0,0,0,0,0,0,0,0,0,0,0,0,0,0,0,0,0,0,0,0,0,0,0,0,0,0,0,0,1,1,2,2,2,2,2,4,10,10,10,13,18,26,30,30,34,59,66,79,103,127,151,183,200,253,327,442,509,565,611,708,761,835,901,901,1049,1080,1145,1192,1326,1326,1382,1514,1584,1636,1671,1735,1790
444,444,"Pueblo-Ca√±on City, CO",-104.61576847777778,38.20692830888889,0,0,0,0,0,0,0,0,0,0,0,0,0,0,0,0,0,0,0,0,0,0,0,0,0,0,0,0,0,0,0,0,0,0,0,0,0,0,0,0,0,0,0,0,0,0,0,0,0,0,0,1,1,1,1,1,1,2,2,3,3,3,3,4,4,4,7,11,11,23,23,24,28,33,43,45,48,49,49,53,55,65,72,72,72,77,81
446,446,"Pullman-Moscow, WA-ID",-117.38073985882352,46.885340578235294,0,0,0,0,0,0,0,0,0,0,0,0,0,0,0,0,0,0,0,0,0,0,0,0,0,0,0,0,0,0,0,0,0,0,0,0,0,0,0,0,0,0,0,0,0,0,0,0,0,0,0,0,0,0,0,0,0,0,0,0,1,2,2,2,3,5,6,6,8,8,11,12,12,12,12,13,14,14,14,15,15,15,15,15,15,16,17
448,448,"Quincy-Hannibal, IL-MO",-91.19853001064517,39.973317792580644,0,0,0,0,0,0,0,0,0,0,0,0,0,0,0,0,0,0,0,0,0,0,0,0,0,0,0,0,0,0,0,0,0,0,0,0,0,0,0,0,0,0,0,0,0,0,0,0,0,0,0,0,0,0,0,0,0,0,1,1,1,1,1,2,2,2,2,3,3,3,3,3,3,4,4,9,10,2,23,25,26,26,27,28,28,30,31
450,450,"Raleigh-Durham-Cary, NC",-78.75612456373067,35.920854359220364,0,0,0,0,0,0,0,0,0,0,0,0,0,0,0,0,0,0,0,0,0,0,0,0,0,0,0,0,0,0,0,0,0,0,0,0,0,0,0,0,0,1,1,1,2,2,2,2,7,7,10,11,15,18,19,37,54,65,85,87,110,111,156,183,236,271,292,326,342,405,440,514,566,622,663,739,823,884,940,1007,1112,1238,1274,1355,1434,1507,1552
452,452,"Rapid City-Spearfish, SD",-103.254676815,44.191267630000006,0,0,0,0,0,0,0,0,0,0,0,0,0,0,0,0,0,0,0,0,0,0,0,0,0,0,0,0,0,0,0,0,0,0,0,0,0,0,0,0,0,0,0,0,0,0,0,0,0,1,1,1,1,1,1,1,1,1,1,1,1,1,1,2,2,6,6,8,11,12,12,16,16,16,16,16,16,16,17,18,18,18,19,19,19,20,20
454,454,"Redding-Red Bluff, CA",-122.04699687037036,40.74027697370371,0,0,0,0,0,0,0,0,0,0,0,0,0,0,0,0,0,0,0,0,0,0,0,0,0,0,0,0,0,0,0,0,0,0,0,0,0,0,0,0,0,0,0,0,0,0,0,1,1,1,1,1,1,1,1,1,1,1,1,1,1,2,2,3,3,3,3,4,4,6,7,7,11,13,18,21,22,24,25,25,25,25,25,26,26,26,27
456,456,"Reno-Carson City-Fernley, NV",-119.65665313456,40.529467236528,0,0,0,0,0,0,0,0,0,0,0,0,0,0,0,0,0,0,0,0,0,0,0,0,0,0,0,0,0,0,0,0,0,0,0,0,0,0,0,0,0,0,0,0,1,1,2,2,2,2,2,2,4,4,10,13,13,15,16,24,27,28,48,56,63,73,86,118,122,133,155,175,198,265,284,285,330,351,353,393,421,448,503,575,597,598,625
458,458,"Richmond-Connersville, IN",-85.09226467883721,39.75273067023256,0,0,0,0,0,0,0,0,0,0,0,0,0,0,0,0,0,0,0,0,0,0,0,0,0,0,0,0,0,0,0,0,0,0,0,0,0,0,0,0,0,0,0,0,0,0,0,0,0,0,0,0,0,0,0,0,1,2,2,2,2,2,2,3,4,4,5,6,9,11,13,14,19,20,24,26,31,34,35,35,37,37,39,39,40,41,43
462,462,"Rochester-Austin, MN",-92.45377443611112,43.96508789952992,0,0,0,0,0,0,0,0,0,0,0,0,0,0,0,0,0,0,0,0,0,0,0,0,0,0,0,0,0,0,0,0,0,0,0,0,0,0,0,0,0,0,0,0,0,0,0,0,0,1,1,1,1,1,3,5,6,7,12,17,23,28,31,36,51,56,63,75,84,88,99,106,116,130,138,139,148,155,163,178,186,200,200,205,211,211,234
464,464,"Rochester-Batavia-Seneca Falls, NY",-77.68060019031546,43.104836093406945,0,0,0,0,0,0,0,0,0,0,0,0,0,0,0,0,0,0,0,0,0,0,0,0,0,0,0,0,0,0,0,0,0,0,0,0,0,0,0,0,0,0,0,0,0,0,0,0,0,0,2,1,2,2,12,15,21,32,39,56,78,91,122,139,176,203,250,271,307,323,436,518,570,628,679,710,747,834,903,969,1004,1044,1073,1124,1161,1217,1268
466,466,"Rockford-Freeport-Rochelle, IL",-89.18109346916668,42.281273782361104,0,0,0,0,0,0,0,0,0,0,0,0,0,0,0,0,0,0,0,0,0,0,0,0,0,0,0,0,0,0,0,0,0,0,0,0,0,0,0,0,0,0,0,0,0,0,0,0,0,0,0,0,0,0,0,1,1,1,1,4,5,6,6,8,8,10,11,15,16,18,22,28,32,43,53,65,81,88,94,108,111,127,146,149,165,177,216
468,468,"Rocky Mount-Wilson-Roanoke Rapids, NC",-77.72792135601351,36.0115385647973,0,0,0,0,0,0,0,0,0,0,0,0,0,0,0,0,0,0,0,0,0,0,0,0,0,0,0,0,0,0,0,0,0,0,0,0,0,0,0,0,0,0,0,0,0,0,0,0,0,0,0,0,0,0,1,1,1,1,2,2,4,6,9,11,14,15,16,42,48,61,65,69,84,99,106,111,137,143,158,171,194,202,216,234,256,270,296
472,472,"Sacramento-Roseville, CA",-121.30199625714285,38.59022520404762,0,0,0,0,0,0,0,0,0,0,0,0,0,0,0,0,0,0,0,0,0,0,0,0,0,0,0,0,0,0,1,1,1,1,1,1,2,2,2,2,3,3,4,4,8,8,8,10,18,19,25,22,38,36,41,50,54,60,68,69,74,113,124,160,169,229,251,266,332,356,388,498,591,602,660,686,762,847,862,963,969,1037,1077,1151,1192,1233,1260
474,474,"Saginaw-Midland-Bay City, MI",-84.07157650518751,43.414856422562494,0,0,0,0,0,0,0,0,0,0,0,0,0,0,0,0,0,0,0,0,0,0,0,0,0,0,0,0,0,0,0,0,0,0,0,0,0,0,0,0,0,0,0,0,0,0,0,0,0,0,0,0,1,1,1,1,1,2,4,5,8,9,15,18,20,26,31,37,54,70,93,113,124,144,166,191,206,249,275,316,337,359,385,395,413,457,480
476,476,"St. Louis-St. Charles-Farmington, MO-IL",-90.38166023058372,38.62603977120574,0,0,0,0,0,0,0,0,0,0,0,0,0,0,0,0,0,0,0,0,0,0,0,0,0,0,0,0,0,0,0,0,0,0,0,0,0,0,0,0,0,0,0,0,0,0,1,1,1,1,2,2,4,4,6,8,13,18,23,34,43,99,150,211,299,407,510,566,620,846,1062,1252,1262,1599,1642,1920,2275,2399,2639,2993,3164,3335,3523,3714,3770,4031,4180
480,480,"Salisbury-Cambridge, MD-DE",-75.43021463537589,38.60858265610711,0,0,0,0,0,0,0,0,0,0,0,0,0,0,0,0,0,0,0,0,0,0,0,0,0,0,0,0,0,0,0,0,0,0,0,0,0,0,0,0,0,0,0,0,0,0,0,0,0,0,0,0,0,0,0,1,1,3,9,12,17,25,30,33,35,45,68,75,91,99,117,122,134,145,176,185,244,317,342,391,468,539,648,742,797,834,971
482,482,"Salt Lake City-Provo-Orem, UT",-111.79942178697263,40.6604021388564,0,0,0,0,0,0,0,0,0,0,0,0,0,0,0,0,0,0,0,0,0,0,0,0,0,0,0,0,0,0,0,0,0,0,0,0,0,0,0,0,0,0,0,0,0,1,1,1,2,3,3,7,8,18,28,39,47,60,93,116,160,236,277,321,374,449,569,681,760,832,832,1022,1188,1363,1529,1597,1656,1756,1762,1996,2093,2185,2242,2293,2421,2556,2702
484,484,"San Antonio-New Braunfels-Pearsall, TX",-98.4886693398143,29.465787949702875,0,0,0,0,0,0,0,0,0,0,0,0,0,0,0,0,0,0,0,0,0,0,0,0,0,0,0,0,0,0,0,0,0,0,0,0,0,0,0,0,0,0,0,0,0,0,0,0,0,0,0,1,2,2,3,4,12,30,33,44,53,66,82,85,108,140,155,173,195,209,251,282,314,409,455,482,548,608,668,736,792,856,906,930,958,1041,1077
488,488,"San Jose-San Francisco-Oakland, CA",-121.95395008541973,37.59585807517231,0,0,0,0,0,0,0,0,0,1,1,1,4,4,4,4,4,4,4,4,4,4,4,4,4,4,4,4,4,4,4,4,4,4,4,4,4,4,5,5,13,17,18,29,31,51,63,65,89,110,133,183,227,224,315,382,441,495,576,705,750,925,1099,1271,1523,1764,1893,2082,2421,2591,2859,3108,3371,3635,3994,4119,4362,4657,4798,5119,5328,5502,5845,5973,6356,6542,6790
496,496,"Savannah-Hinesville-Statesboro, GA",-81.29311369366103,32.036591024,0,0,0,0,0,0,0,0,0,0,0,0,0,0,0,0,0,0,0,0,0,0,0,0,0,0,0,0,0,0,0,0,0,0,0,0,0,0,0,0,0,0,0,0,0,0,0,0,0,0,0,0,0,0,0,0,0,0,3,5,6,6,12,13,17,20,28,31,33,45,57,71,89,101,125,162,186,200,208,218,227,236,247,261,271,272,295
497,497,"Scottsboro-Fort Payne, AL",-85.89979309878788,34.61557677515152,0,0,0,0,0,0,0,0,0,0,0,0,0,0,0,0,0,0,0,0,0,0,0,0,0,0,0,0,0,0,0,0,0,0,0,0,0,0,0,0,0,0,0,0,0,0,0,0,0,0,0,0,0,0,0,0,0,0,1,1,1,1,2,2,5,5,9,9,9,12,13,17,22,25,28,31,32,33,37,39,43,50,53,58,60,64,66
500,500,"Seattle-Tacoma, WA",-121.88360264949948,47.597506639971236,1,1,1,1,1,1,1,1,1,1,1,1,1,1,1,1,1,1,1,1,1,1,1,1,1,1,1,1,1,1,1,1,1,1,1,1,1,1,7,11,18,27,39,69,77,99,118,118,158,277,400,490,583,583,752,916,975,1171,1327,1550,1713,1905,2024,2272,2747,2926,3470,3672,3856,4300,4386,4942,5184,5493,5903,6155,6438,6718,7027,7370,7606,7818,7900,8074,8221,8381,8691
508,508,"Shreveport-Bossier City-Minden, LA",-93.80841246243259,32.55367420054524,0,0,0,0,0,0,0,0,0,0,0,0,0,0,0,0,0,0,0,0,0,0,0,0,0,0,0,0,0,0,0,0,0,0,0,0,0,0,0,0,0,0,0,0,0,0,0,0,0,0,1,1,2,2,4,5,6,9,20,23,23,54,61,131,166,199,264,309,318,352,429,484,541,837,909,983,1041,1104,1233,1289,1326,1390,1411,1499,1532,1585,1669
515,515,"South Bend-Elkhart-Mishawaka, IN-MI",-86.2116248056447,41.671770113610314,0,0,0,0,0,0,0,0,0,0,0,0,0,0,0,0,0,0,0,0,0,0,0,0,0,0,0,0,0,0,0,0,0,0,0,0,0,0,0,0,0,0,0,0,0,0,0,0,0,1,1,1,1,1,1,1,1,3,6,9,15,26,30,34,41,60,71,83,91,116,132,147,171,197,220,237,269,296,323,355,394,427,434,494,556,622,698
517,517,"Spencer-Spirit Lake, IA",-95.15098340666667,43.18094029666667,0,0,0,0,0,0,0,0,0,0,0,0,0,0,0,0,0,0,0,0,0,0,0,0,0,0,0,0,0,0,0,0,0,0,0,0,0,0,0,0,0,0,0,0,0,0,0,0,0,0,0,0,0,0,0,0,0,0,0,0,0,0,0,0,0,1,1,1,1,1,2,3,3,3,3,3,3,3,3,3,3,3,3,3,3,3,3
518,518,"Spokane-Spokane Valley-Coeur d'Alene, WA-ID",-117.31629289463277,47.643694815677975,0,0,0,0,0,0,0,0,0,0,0,0,0,0,0,0,0,0,0,0,0,0,0,0,0,0,0,0,0,0,0,0,0,0,0,0,0,0,0,0,0,0,0,0,0,0,0,0,0,0,0,0,3,3,3,4,5,10,14,20,24,27,38,42,78,95,122,137,165,169,192,218,236,251,264,269,270,286,294,299,301,325,328,328,330,341,354
522,522,"Springfield-Jacksonville-Lincoln, IL",-89.62119367049505,39.726410668712866,0,0,0,0,0,0,0,0,0,0,0,0,0,0,0,0,0,0,0,0,0,0,0,0,0,0,0,0,0,0,0,0,0,0,0,0,0,0,0,0,0,0,0,0,0,0,0,0,0,0,0,0,0,2,2,4,3,4,4,5,5,5,6,7,7,9,10,19,29,32,36,40,44,50,57,63,67,69,76,79,82,82,84,91,90,96,101
524,524,"State College-DuBois, PA",-77.89377799012195,40.92942645817074,0,0,0,0,0,0,0,0,0,0,0,0,0,0,0,0,0,0,0,0,0,0,0,0,0,0,0,0,0,0,0,0,0,0,0,0,0,0,0,0,0,0,0,0,0,0,0,0,0,0,0,0,0,0,0,0,0,0,1,1,1,3,8,10,11,13,17,24,28,30,31,32,37,46,50,51,62,64,66,69,78,79,79,79,81,82,82
525,525,"Steamboat Springs-Craig, CO",-107.06989389565217,40.49458319826087,0,0,0,0,0,0,0,0,0,0,0,0,0,0,0,0,0,0,0,0,0,0,0,0,0,0,0,0,0,0,0,0,0,0,0,0,0,0,0,0,0,0,0,0,0,0,0,0,0,0,0,1,1,1,1,1,2,2,2,2,3,3,3,4,9,9,12,18,18,21,21,23,27,31,32,32,35,35,35,35,38,39,44,44,44,44,46
532,532,"Syracuse-Auburn, NY",-76.13540035797739,43.01166016046482,0,0,0,0,0,0,0,0,0,0,0,0,0,0,0,0,0,0,0,0,0,0,0,0,0,0,0,0,0,0,0,0,0,0,0,0,0,0,0,0,0,0,0,0,0,0,0,0,0,0,0,0,0,0,1,2,6,7,13,34,45,56,68,92,126,146,185,235,288,317,363,396,433,462,493,514,537,562,576,621,623,672,703,722,751,769,796
534,534,"Toledo-Findlay-Tiffin, OH",-83.62898148771055,41.5649140019217,0,0,0,0,0,0,0,0,0,0,0,0,0,0,0,0,0,0,0,0,0,0,0,0,0,0,0,0,0,0,0,0,0,0,0,0,0,0,0,0,0,0,0,0,0,0,0,0,0,0,0,0,0,1,1,1,1,1,2,4,9,14,18,29,45,62,86,116,140,164,207,249,282,324,363,390,421,451,488,538,596,613,626,662,727,788,843
536,536,"Tucson-Nogales, AZ",-111.7731865857143,32.087519224873944,0,0,0,0,0,0,0,0,0,0,0,0,0,0,0,0,0,0,0,0,0,0,0,0,0,0,0,0,0,0,0,0,0,0,0,0,0,0,0,0,0,0,0,0,0,0,0,0,1,1,1,1,2,2,4,4,5,7,9,13,18,25,43,50,77,104,122,155,189,204,220,240,283,330,376,419,420,470,519,550,599,630,678,695,712,774,833
538,538,"Tulsa-Muskogee-Bartlesville, OK",-95.94134742315917,36.20318173331714,0,0,0,0,0,0,0,0,0,0,0,0,0,0,0,0,0,0,0,0,0,0,0,0,0,0,0,0,0,0,0,0,0,0,0,0,0,0,0,0,0,0,0,0,0,1,1,1,2,2,2,2,2,2,3,4,4,7,7,8,12,17,19,47,81,106,124,139,148,180,235,300,342,418,459,481,524,549,585,617,656,695,724,787,797,823,823
539,539,"Tupelo-Corinth, MS",-88.66743163431373,34.370975723725486,0,0,0,0,0,0,0,0,0,0,0,0,0,0,0,0,0,0,0,0,0,0,0,0,0,0,0,0,0,0,0,0,0,0,0,0,0,0,0,0,0,0,0,0,0,0,0,0,0,0,0,0,0,0,0,0,0,0,1,1,10,12,17,20,22,23,27,32,31,39,42,44,55,58,60,62,71,74,77,82,84,87,91,91,94,99,102
540,540,"Tyler-Jacksonville, TX",-95.2630553385246,32.33068442885245,0,0,0,0,0,0,0,0,0,0,0,0,0,0,0,0,0,0,0,0,0,0,0,0,0,0,0,0,0,0,0,0,0,0,0,0,0,0,0,0,0,0,0,0,0,0,0,0,0,0,0,3,3,4,4,4,5,5,5,6,10,10,14,16,21,28,28,32,33,38,42,47,59,63,63,68,81,85,88,94,99,102,102,109,112,117,122
544,544,"Victoria-Port Lavaca, TX",-96.9238672707826,28.731913378086954,0,0,0,0,0,0,0,0,0,0,0,0,0,0,0,0,0,0,0,0,0,0,0,0,0,0,0,0,0,0,0,0,0,0,0,0,0,0,0,0,0,0,0,0,0,0,0,0,0,0,0,0,0,0,0,0,0,0,0,0,0,0,3,5,5,6,6,8,12,22,23,29,36,41,44,50,65,74,82,91,94,96,100,110,113,113,115
545,545,"Virginia Beach-Norfolk, VA-NC",-76.38526096158823,36.88506320730252,0,0,0,0,0,0,0,0,0,0,0,0,0,0,0,0,0,0,0,0,0,0,0,0,0,0,0,0,0,0,0,0,0,0,0,0,0,0,0,0,0,0,0,0,0,0,0,0,2,2,0,7,8,8,12,18,20,24,36,42,69,73,83,100,120,143,175,217,232,303,361,419,489,611,650,684,751,814,850,896,945,977,1033,1099,1120,1155,1190
548,548,"Washington-Baltimore-Arlington, DC-MD-VA-WV-PA",-77.01687491764652,39.031475501668915,0,0,0,0,0,0,0,0,0,0,0,0,0,0,0,0,0,0,0,0,0,0,0,0,0,0,0,0,0,0,0,0,0,0,0,0,0,0,0,0,0,0,0,0,3,3,7,7,14,15,22,34,45,49,94,120,159,204,281,369,448,528,624,805,1041,1357,1688,2048,2353,2796,3317,3817,4471,5106,5824,6506,7156,8688,9684,10832,11994,12725,13790,14633,15518,16620,17778
554,554,"Wausau-Stevens Point-Wisconsin Rapids, WI",-89.73761030727273,44.78090507454545,0,0,0,0,0,0,0,0,0,0,0,0,0,0,0,0,0,0,0,0,0,0,0,0,0,0,0,0,0,0,0,0,0,0,0,0,0,0,0,0,0,0,0,0,0,0,0,0,0,0,0,0,0,0,1,1,1,1,2,2,2,2,2,2,3,4,4,4,5,6,8,12,14,14,17,17,18,18,18,18,19,19,20,20,20,20,22
556,556,"Wichita-Winfield, KS",-97.43060879131473,37.68854401752988,0,0,0,0,0,0,0,0,0,0,0,0,0,0,0,0,0,0,0,0,0,0,0,0,0,0,0,0,0,0,0,0,0,0,0,0,0,0,0,0,0,0,0,0,0,0,0,0,0,0,0,1,1,1,1,1,1,2,3,3,5,5,10,14,20,25,38,47,54,63,72,90,97,110,121,138,149,169,176,176,206,211,216,223,227,238,251
558,558,"Williamsport-Lock Haven, PA",-77.20238558047619,41.316784980476186,0,0,0,0,0,0,0,0,0,0,0,0,0,0,0,0,0,0,0,0,0,0,0,0,0,0,0,0,0,0,0,0,0,0,0,0,0,0,0,0,0,0,0,0,0,0,0,0,0,0,0,0,0,0,0,0,0,0,0,0,0,0,0,1,1,2,2,3,4,6,7,7,9,11,10,13,15,18,21,24,27,31,36,37,38,38,42
566,566,"Youngstown-Warren, OH-PA",-80.74185231404122,41.05972469572166,0,0,0,0,0,0,0,0,0,0,0,0,0,0,0,0,0,0,0,0,0,0,0,0,0,0,0,0,0,0,0,0,0,0,0,0,0,0,0,0,0,0,0,0,0,0,0,0,0,0,1,1,2,2,2,3,5,7,10,17,24,29,37,57,71,96,122,138,177,226,262,286,328,390,410,445,495,529,577,635,664,730,774,815,855,901,970
