Key,Name,States,Longitude,Latitude,1/22/20,1/23/20,1/24/20,1/25/20,1/26/20,1/27/20,1/28/20,1/29/20,1/30/20,1/31/20,2/1/20,2/2/20,2/3/20,2/4/20,2/5/20,2/6/20,2/7/20,2/8/20,2/9/20,2/10/20,2/11/20,2/12/20,2/13/20,2/14/20,2/15/20,2/16/20,2/17/20,2/18/20,2/19/20,2/20/20,2/21/20,2/22/20,2/23/20,2/24/20,2/25/20,2/26/20,2/27/20,2/28/20,2/29/20,3/1/20,3/2/20,3/3/20,3/4/20,3/5/20,3/6/20,3/7/20,3/8/20,3/9/20,3/10/20,3/11/20,3/12/20,3/13/20,3/14/20,3/15/20,3/16/20,3/17/20,3/18/20,3/19/20,3/20/20,3/21/20,3/22/20,3/23/20,3/24/20,3/25/20,3/26/20,3/27/20,3/28/20,3/29/20,3/30/20,3/31/20,4/1/20,4/2/20,4/3/20,4/4/20,4/5/20,4/6/20,4/7/20,4/8/20,4/9/20,4/10/20,4/11/20,4/12/20,4/13/20,4/14/20,4/15/20,4/16/20,4/17/20,4/18/20,4/19/20,4/20/20,4/21/20,4/22/20,4/23/20,4/24/20,4/25/20,4/26/20,4/27/20,4/28/20,4/29/20,4/30/20,5/1/20,5/2/20,5/3/20,5/4/20,5/5/20,5/6/20,5/7/20,5/8/20,5/9/20,5/10/20,5/11/20,5/12/20,5/13/20,5/14/20,5/15/20,5/16/20,5/17/20,5/18/20,5/19/20,5/20/20,5/21/20,5/22/20,5/23/20,5/24/20,5/25/20,5/26/20
104,Albany-Schenectady, NY,-73.89856,42.78196,0,0,0,0,0,0,0,0,0,0,0,0,0,0,0,0,0,0,0,0,0,0,0,0,0,0,0,0,0,0,0,0,0,0,0,0,0,0,0,0,0,0,0,0,0,2,2,2,2,2,5,6,11,11,25,41,72,80,122,189,234,238,304,336,388,429,478,503,533,549,598,644,697,744,804,836,886,914,1023,1113,1153,1204,1257,1418,1447,1501,1620,1683,1762,1781,1872,1955,1912,2001,2396,2518,2585,2659,2762,2967,3100,3181,3236,3304,3350,3471,3534,3626,3719,3759,3808,3876,3921,3973,4032,4100,4150,4221,4276,4319,4364,4450,4485,4522,4556,4567
106,Albuquerque-Santa Fe-Las Vegas, NM,-106.65723,35.24949,0,0,0,0,0,0,0,0,0,0,0,0,0,0,0,0,0,0,0,0,0,0,0,0,0,0,0,0,0,0,0,0,0,0,0,0,0,0,0,0,0,0,0,0,0,0,0,0,0,1,3,8,11,11,19,20,25,32,37,48,48,58,65,76,76,90,142,158,158,213,213,241,330,334,433,462,524,524,561,685,691,791,806,818,868,868,917,976,999,1034,1034,1101,1142,1176,1204,1235,1245,1298,1329,1382,1414,1495,1541,1571,1600,1629,1668,1701,1724,1754,1781,1813,1832,1862,1903,1933,1957,1972,1985,2093,2068,2112,2112,2158,2174,2204
107,Altoona-Huntingdon, PA,-78.04151,40.43171,0,0,0,0,0,0,0,0,0,0,0,0,0,0,0,0,0,0,0,0,0,0,0,0,0,0,0,0,0,0,0,0,0,0,0,0,0,0,0,0,0,0,0,0,0,0,0,0,0,0,0,0,0,0,0,0,0,0,0,0,0,0,0,0,1,1,3,4,7,5,5,6,7,9,9,9,11,12,14,17,20,20,22,22,24,25,26,26,26,27,27,29,35,39,43,43,45,47,52,61,63,71,80,82,84,85,137,145,147,209,216,220,228,232,236,242,252,252,252,254,265,269,273,274,276,276
108,Amarillo-Pampa-Borger, TX,-101.85355,35.31239,0,0,0,0,0,0,0,0,0,0,0,0,0,0,0,0,0,0,0,0,0,0,0,0,0,0,0,0,0,0,0,0,0,0,0,0,0,0,0,0,0,0,0,0,0,0,0,0,0,0,0,0,0,0,0,0,0,2,3,3,3,5,6,6,6,8,8,13,13,20,35,36,46,57,83,89,91,103,127,132,144,152,153,172,172,199,221,237,264,286,311,329,372,407,483,546,563,646,694,782,887,1021,1120,1190,1269,1318,1406,1472,1559,1588,1588,1666,1852,1977,2063,2800,2859,2865,2892,2948,2960,2960,3013,3025,3025,3025
118,Appleton-Oshkosh-Neenah, WI,-88.50069,44.21871,0,0,0,0,0,0,0,0,0,0,0,0,0,0,0,0,0,0,0,0,0,0,0,0,0,0,0,0,0,0,0,0,0,0,0,0,0,0,0,0,0,0,0,0,0,0,0,0,0,0,0,0,1,1,4,4,6,7,8,8,8,8,8,10,11,11,12,15,20,24,33,41,46,46,45,50,53,53,55,58,58,60,61,63,67,68,70,76,82,82,82,86,90,96,98,101,104,108,117,120,138,146,155,164,180,188,203,230,244,250,258,261,268,278,295,308,319,324,330,347,363,401,416,425,445,460
120,Asheville-Marion-Brevard, NC,-82.50295,35.48345,0,0,0,0,0,0,0,0,0,0,0,0,0,0,0,0,0,0,0,0,0,0,0,0,0,0,0,0,0,0,0,0,0,0,0,0,0,0,0,0,0,0,0,0,0,0,0,0,0,0,0,0,0,0,0,0,1,1,1,2,5,11,17,18,25,27,34,40,41,52,53,59,68,72,98,102,103,110,114,119,130,138,159,164,168,179,184,187,199,208,211,230,227,241,242,244,251,252,262,303,307,319,322,333,343,347,359,362,372,382,388,398,425,435,471,492,515,531,531,553,553,642,656,671,701,702
122,Atlanta--Athens-Clarke County--Sandy Springs, GA-AL,-84.28721,33.85774,0,0,0,0,0,0,0,0,0,0,0,0,0,0,0,0,0,0,0,0,0,0,0,0,0,0,0,0,0,0,0,0,0,0,0,0,0,0,0,0,0,2,2,2,3,5,5,10,17,22,28,36,61,86,107,128,175,234,354,398,452,571,718,813,987,1312,1606,1780,1962,2549,2802,3134,3656,4004,4302,4697,5258,5691,5972,6380,6696,6949,7523,8574,8839,9303,10153,10451,10797,11494,11657,12280,12994,13391,13761,13893,14441,14912,15476,15958,16569,17265,17511,18054,18475,19157,19436,19807,20186,20599,20787,21153,21374,21670,22031,22184,22232,22515,22925,23346,23782,24197,24508,24934,25495,26275
140,Bend-Prineville, OR,-121.18736,43.92649,0,0,0,0,0,0,0,0,0,0,0,0,0,0,0,0,0,0,0,0,0,0,0,0,0,0,0,0,0,0,0,0,0,0,0,0,0,0,0,0,0,0,0,0,0,0,0,0,0,1,1,1,3,3,4,6,6,6,8,9,10,10,10,10,15,18,20,23,25,24,27,32,37,37,40,40,41,45,51,51,52,55,55,56,56,60,62,64,65,65,65,67,71,71,72,74,76,76,76,77,77,79,79,80,81,82,84,85,86,87,87,91,90,92,95,96,97,102,108,117,118,117,121,124,125,126
142,Birmingham-Hoover-Talladega, AL,-86.84320,33.52177,0,0,0,0,0,0,0,0,0,0,0,0,0,0,0,0,0,0,0,0,0,0,0,0,0,0,0,0,0,0,0,0,0,0,0,0,0,0,0,0,0,0,0,0,0,0,0,0,0,0,0,1,1,5,20,26,30,46,63,82,95,117,132,195,250,295,329,390,406,439,467,506,585,631,692,731,787,816,878,940,1006,1064,1110,1128,1141,1167,1210,1235,1267,1296,1318,1361,1420,1458,1458,1536,1555,1583,1610,1622,1670,1697,1734,1758,1799,1837,1876,1921,1947,1969,1988,2028,2085,2139,2168,2232,2268,2315,2339,2441,2471,2542,2643,2709,2784,2875
144,Bloomington-Bedford, IN,-86.53855,39.04000,0,0,0,0,0,0,0,0,0,0,0,0,0,0,0,0,0,0,0,0,0,0,0,0,0,0,0,0,0,0,0,0,0,0,0,0,0,0,0,0,0,0,0,0,0,0,0,0,0,0,0,0,0,0,0,0,0,2,1,2,2,2,6,9,12,18,28,39,45,50,56,60,75,94,102,102,115,132,134,147,156,170,177,183,187,197,205,211,214,216,220,223,226,227,234,234,235,239,238,245,248,259,259,264,265,270,273,282,286,287,293,294,296,297,298,304,310,315,320,322,326,327,330,331,334,338
145,Bloomington-Pontiac, IL,-88.80942,40.54124,0,0,0,0,0,0,0,0,0,0,0,0,0,0,0,0,0,0,0,0,0,0,0,0,0,0,0,0,0,0,0,0,0,0,0,0,0,0,0,0,0,0,0,0,0,0,0,0,0,0,0,0,0,0,0,0,0,0,1,6,7,8,8,8,9,12,12,16,19,22,23,37,41,46,53,55,67,75,83,89,90,93,96,98,99,99,101,100,102,103,104,104,105,105,108,108,112,114,114,115,117,120,123,126,126,131,134,136,139,141,145,151,152,155,157,183,196,213,216,219,224,225,233,235,242,243
146,Bloomsburg-Berwick-Sunbury, PA,-76.59877,40.97033,0,0,0,0,0,0,0,0,0,0,0,0,0,0,0,0,0,0,0,0,0,0,0,0,0,0,0,0,0,0,0,0,0,0,0,0,0,0,0,0,0,0,0,0,0,0,0,0,0,0,0,0,0,0,0,0,0,0,0,1,2,2,4,5,7,8,11,13,23,23,32,39,46,59,87,92,117,130,146,171,197,219,236,264,278,303,325,354,371,385,408,424,435,445,454,470,479,484,488,492,502,508,511,517,526,535,541,548,564,570,576,579,583,591,597,604,607,614,615,629,637,644,646,655,659,664
147,Boise City-Mountain Home-Ontario, ID-OR,-116.37786,43.49745,0,0,0,0,0,0,0,0,0,0,0,0,0,0,0,0,0,0,0,0,0,0,0,0,0,0,0,0,0,0,0,0,0,0,0,0,0,0,0,0,0,0,0,0,0,0,0,0,0,0,0,0,1,2,2,3,3,3,9,12,12,16,24,29,53,81,101,117,158,251,259,392,410,475,511,531,553,584,600,672,697,704,713,741,749,795,804,830,836,836,877,890,923,938,949,951,952,983,983,997,1013,1042,1043,1058,1061,1070,1076,1076,1089,1091,1099,1104,1105,1125,1126,1144,1144,1155,1155,1170,1173,1185,1185,1187,1187,1187
148,Boston-Worcester-Providence, MA-RI-NH-CT,-71.26912,42.28698,0,0,0,0,0,0,0,0,0,0,1,1,1,1,1,1,1,1,1,1,1,1,1,1,1,1,1,1,1,1,1,1,1,1,1,1,1,1,1,2,3,4,4,4,8,9,25,25,40,92,104,120,153,153,207,243,291,362,446,561,696,828,1168,1716,2227,2949,3806,4475,5203,6242,7403,8738,10075,11306,12273,13587,14957,16792,18763,20850,22946,25319,26645,27695,30287,32482,35323,37163,39067,39680,42752,44963,48354,53354,56024,57949,59668,61624,64126,66468,68951,71210,72691,74159,75355,77363,79019,80602,81963,82977,85453,86465,88006,89627,90871,92374,93396,94416,95328,97425,98716,99722,100726,101831,102402,102815
150,Bowling Green-Glasgow, KY,-86.43463,37.03187,0,0,0,0,0,0,0,0,0,0,0,0,0,0,0,0,0,0,0,0,0,0,0,0,0,0,0,0,0,0,0,0,0,0,0,0,0,0,0,0,0,0,0,0,0,0,0,0,0,0,0,0,0,0,0,0,0,0,2,2,2,4,4,6,6,6,6,12,15,19,19,19,19,27,29,29,30,30,35,35,35,75,75,82,90,114,139,166,185,190,204,242,242,289,320,358,377,417,475,505,543,543,571,628,682,710,766,800,825,825,878,945,945,1051,1086,1118,1118,1153,1173,1215,1233,1266,1285,1285,1285,1332
154,Brownsville-Harlingen-Raymondville, TX,-97.48404,26.15171,0,0,0,0,0,0,0,0,0,0,0,0,0,0,0,0,0,0,0,0,0,0,0,0,0,0,0,0,0,0,0,0,0,0,0,0,0,0,0,0,0,0,0,0,0,0,0,0,0,0,0,0,0,0,0,0,2,0,1,2,6,6,6,7,10,14,14,21,22,28,28,40,58,67,82,92,106,115,123,152,164,200,200,221,244,261,277,287,306,306,319,331,343,354,367,379,379,389,400,414,425,434,445,445,456,467,483,497,508,526,526,541,558,583,596,633,633,633,649,664,679,679,713,712,712,712
160,Buffalo-Cheektowaga-Olean, NY,-78.73246,42.81831,0,0,0,0,0,0,0,0,0,0,0,0,0,0,0,0,0,0,0,0,0,0,0,0,0,0,0,0,0,0,0,0,0,0,0,0,0,0,0,0,0,0,0,0,0,0,0,0,0,0,0,0,3,3,7,11,20,32,51,59,65,96,124,134,220,268,352,456,490,546,635,716,837,918,1185,1280,1373,1505,1604,1672,1692,1793,1883,1978,2073,2212,2284,2291,2472,2481,2579,2589,2782,2974,3162,3367,3444,3520,3644,3786,3970,4105,4237,4348,4452,4611,4783,4919,5024,5156,5199,5262,5357,5445,5589,5702,5811,5878,5951,6059,6221,6368,6557,6645,6736,6799
161,Burlington-Fort Madison-Keokuk, IA-IL-MO,-91.22610,40.77685,0,0,0,0,0,0,0,0,0,0,0,0,0,0,0,0,0,0,0,0,0,0,0,0,0,0,0,0,0,0,0,0,0,0,0,0,0,0,0,0,0,0,0,0,0,0,0,0,0,0,0,0,0,0,0,0,0,0,0,0,0,0,0,1,1,1,1,1,1,1,2,1,1,3,3,3,5,6,6,6,6,7,9,11,13,14,16,17,20,22,23,23,24,27,29,30,32,34,35,35,37,42,45,47,51,56,62,67,73,76,77,81,82,84,77,76,76,80,80,84,93,94,98,97,99,104
162,Burlington-South Burlington-Barre, VT,-73.02641,44.52070,0,0,0,0,0,0,0,0,0,0,0,0,0,0,0,0,0,0,0,0,0,0,0,0,0,0,0,0,0,0,0,0,0,0,0,0,0,0,0,0,0,0,0,0,0,0,0,0,0,0,1,1,2,2,5,5,5,5,10,26,26,37,45,63,86,105,122,138,138,180,194,211,241,289,320,336,366,366,398,398,462,476,486,488,488,495,499,508,511,513,518,521,521,522,531,537,540,542,542,545,553,556,561,563,563,565,571,571,571,573,573,573,573,573,574,575,580,580,580,580,582,582,584,584,586,589
163,Cape Coral-Fort Myers-Naples, FL,-81.60662,26.39954,0,0,0,0,0,0,0,0,0,0,0,0,0,0,0,0,0,0,0,0,0,0,0,0,0,0,0,0,0,0,0,0,0,0,0,0,0,0,0,0,0,0,0,0,0,2,2,2,2,5,6,7,7,10,10,11,23,29,39,45,59,69,73,89,121,157,193,220,286,356,366,457,512,575,617,652,714,749,799,879,944,998,1040,1060,1098,1130,1197,1235,1273,1299,1318,1329,1453,1530,1543,1578,1601,1630,1664,1700,1769,1809,1859,1902,1931,1973,2046,2064,2119,2165,2202,2319,2361,2408,2480,2529,2615,2709,2774,2828,2937,3076,3121,3231,3339,3401
164,Cape Girardeau-Sikeston, MO-IL,-89.61443,37.19347,0,0,0,0,0,0,0,0,0,0,0,0,0,0,0,0,0,0,0,0,0,0,0,0,0,0,0,0,0,0,0,0,0,0,0,0,0,0,0,0,0,0,0,0,0,0,0,0,0,0,0,0,0,0,0,0,0,0,1,1,1,1,1,4,5,7,9,9,19,22,22,22,22,24,24,31,32,33,36,42,45,46,57,58,59,77,81,89,92,92,94,104,106,109,109,115,116,117,119,120,126,133,133,133,132,135,136,137,138,142,143,146,147,148,149,152,153,153,152,155,158,162,163,166,169,172
168,Cedar Rapids-Iowa City, IA,-91.60751,41.86711,0,0,0,0,0,0,0,0,0,0,0,0,0,0,0,0,0,0,0,0,0,0,0,0,0,0,0,0,0,0,0,0,0,0,0,0,0,0,0,0,0,0,0,0,0,0,0,3,7,12,13,14,14,14,15,15,22,23,23,32,39,44,47,58,71,94,112,124,167,198,215,231,256,294,331,362,394,424,474,503,532,552,587,607,633,652,693,745,835,871,996,1019,1036,1093,1142,1176,1232,1267,1294,1323,1345,1393,1434,1469,1493,1511,1567,1579,1589,1603,1627,1640,1648,1667,1683,1701,1709,1717,1718,1726,1742,1758,1767,1777,1790,1800
170,Charleston-Huntington-Ashland, WV-OH-KY,-81.97783,38.44875,0,0,0,0,0,0,0,0,0,0,0,0,0,0,0,0,0,0,0,0,0,0,0,0,0,0,0,0,0,0,0,0,0,0,0,0,0,0,0,0,0,0,0,0,0,0,0,0,0,0,0,0,0,0,0,0,0,0,2,4,6,6,7,9,14,26,32,35,43,56,66,74,79,106,112,127,146,161,177,211,212,230,242,251,305,329,355,364,454,453,460,471,495,502,505,529,533,545,553,559,568,581,583,590,595,592,607,617,617,627,632,641,646,658,667,675,678,673,674,678,676,689,689,693,694,694
172,Charlotte-Concord, NC-SC,-80.79606,35.27080,0,0,0,0,0,0,0,0,0,0,0,0,0,0,0,0,0,0,0,0,0,0,0,0,0,0,0,0,0,0,0,0,0,0,0,0,0,0,0,0,0,0,0,0,0,0,0,0,0,1,3,3,5,7,11,17,22,42,62,99,116,148,208,256,314,390,460,529,600,672,720,857,971,1077,1112,1245,1364,1426,1486,1579,1680,1732,1901,1961,2027,2153,2250,2286,2338,2415,2482,2610,2698,2787,2874,2939,2980,3030,3128,3270,3331,3407,3447,3472,3571,3707,3796,3911,4010,4079,4157,4210,4392,4501,4584,4751,4869,4977,4977,5180,5220,5558,5763,5883,6072,6140
174,Chattanooga-Cleveland-Dalton, TN-GA,-85.03482,35.06222,0,0,0,0,0,0,0,0,0,0,0,0,0,0,0,0,0,0,0,0,0,0,0,0,0,0,0,0,0,0,0,0,0,0,0,0,0,0,0,0,0,0,0,0,0,0,0,0,0,0,0,3,3,3,3,3,7,9,10,13,19,25,24,46,56,61,71,80,80,107,120,149,165,175,180,198,222,225,233,252,262,272,288,308,317,326,344,362,373,390,413,478,496,514,534,543,610,628,667,708,749,774,768,809,827,851,884,915,935,946,968,1015,1060,1111,1136,1154,1162,1187,1234,1261,1513,1632,1717,1775,1843,1921
176,Chicago-Naperville, IL-IN-WI,-87.88739,41.85123,0,0,1,1,1,1,1,1,1,2,2,2,2,2,2,2,2,2,2,2,2,2,2,2,2,2,2,2,2,2,2,2,2,2,2,2,2,2,2,3,4,4,4,5,5,6,7,7,12,25,32,46,60,60,76,154,262,402,404,727,1029,1201,1520,1841,1862,3006,3479,4558,4997,5961,6940,7645,8479,10256,11129,12110,13357,14836,16121,17532,18881,20558,21745,22948,24302,25535,27341,28842,29965,31109,32540,34394,36207,38803,40800,42768,44654,46787,48945,51324,54450,56893,59717,61962,64020,66274,68791,71569,73738,75317,76573,80256,81811,84893,87240,89244,90815,92998,94504,96824,98986,101550,103797,106167,107811,108902
178,Cincinnati-Wilmington-Maysville, OH-KY-IN,-84.53323,39.18984,0,0,0,0,0,0,0,0,0,0,0,0,0,0,0,0,0,0,0,0,0,0,0,0,0,0,0,0,0,0,0,0,0,0,0,0,0,0,0,0,0,0,0,0,0,0,0,0,0,0,0,0,4,4,6,8,10,12,24,31,50,63,86,101,119,141,175,209,234,286,332,383,428,557,609,705,765,818,921,990,1027,1138,1237,1219,1273,1353,1447,1536,1588,1633,1698,1749,1892,1990,2064,2122,2174,2285,2375,2529,2678,2769,2882,2966,3088,3181,3267,3433,3570,3621,3767,3846,3917,4087,4173,4295,4358,4498,4604,4686,4832,4958,5081,5174,5271,5351
184,Cleveland-Akron-Canton, OH,-81.61081,41.26742,0,0,0,0,0,0,0,0,0,0,0,0,0,0,0,0,0,0,0,0,0,0,0,0,0,0,0,0,0,0,0,0,0,0,0,0,0,0,0,0,0,0,0,0,0,0,0,0,3,4,4,9,17,18,36,48,60,80,109,147,203,249,293,356,444,575,665,793,911,982,1091,1246,1417,1499,1574,1682,1757,1870,1966,2058,2182,2301,2404,2482,2604,2762,2894,3063,3118,3300,3451,3618,3783,3903,4020,4107,4207,4344,4482,4692,4902,5097,5208,5339,5462,5689,5850,6038,6221,6321,6446,6549,6687,6854,7021,7149,7295,7497,7623,7764,8079,8316,8500,8663,8762,8948
185,Cleveland-Indianola, MS,-90.77271,33.72782,0,0,0,0,0,0,0,0,0,0,0,0,0,0,0,0,0,0,0,0,0,0,0,0,0,0,0,0,0,0,0,0,0,0,0,0,0,0,0,0,0,0,0,0,0,0,0,0,0,0,0,0,0,0,0,0,2,2,2,2,5,6,7,7,10,14,18,21,21,33,37,39,45,52,64,70,79,81,89,95,100,103,106,110,112,117,121,125,129,132,134,137,140,141,145,147,153,153,154,155,157,160,163,167,172,176,176,181,182,181,181,184,184,185,196,199,197,197,197,202,204,207,213,217,220,220
188,Clovis-Portales, NM,-103.40324,34.33990,0,0,0,0,0,0,0,0,0,0,0,0,0,0,0,0,0,0,0,0,0,0,0,0,0,0,0,0,0,0,0,0,0,0,0,0,0,0,0,0,0,0,0,0,0,0,0,0,0,0,0,0,0,0,0,0,0,0,0,0,0,0,1,1,1,1,2,4,4,4,4,6,7,7,7,7,9,9,9,10,10,11,11,11,11,11,11,11,11,11,11,14,14,14,17,20,20,21,21,26,26,27,28,29,30,34,37,39,40,40,42,44,47,48,50,66,67,68,70,72,70,76,76,80,82,85
190,Columbia-Moberly-Mexico, MO,-92.20500,39.07395,0,0,0,0,0,0,0,0,0,0,0,0,0,0,0,0,0,0,0,0,0,0,0,0,0,0,0,0,0,0,0,0,0,0,0,0,0,0,0,0,0,0,0,0,0,0,0,0,0,0,0,0,0,0,0,1,1,3,8,10,15,17,21,24,39,39,51,56,61,68,70,73,73,84,84,85,87,87,88,90,92,93,96,101,101,106,107,107,107,108,112,113,114,117,116,116,116,117,117,118,122,122,122,117,117,118,119,119,119,122,122,122,122,122,122,122,126,127,132,144,149,158,169,193,203,205
192,Columbia-Orangeburg-Newberry, SC,-81.00337,34.02112,0,0,0,0,0,0,0,0,0,0,0,0,0,0,0,0,0,0,0,0,0,0,0,0,0,0,0,0,0,0,0,0,0,0,0,0,0,0,0,0,0,0,0,0,0,1,1,1,5,7,4,5,12,12,17,28,35,45,71,89,92,127,135,155,155,179,210,238,306,341,390,440,481,532,620,647,693,693,824,894,943,968,972,1020,1044,1136,1173,1197,1229,1240,1239,1338,1363,1411,1460,1542,1559,1606,1649,1685,1719,1825,1888,1919,1950,1981,2041,2070,2111,2138,2171,2203,2237,2277,2322,2383,2415,2444,2469,2506,2556,2621,2676,2703,2718,2770
194,Columbus-Auburn-Opelika, GA-AL,-85.05029,32.51581,0,0,0,0,0,0,0,0,0,0,0,0,0,0,0,0,0,0,0,0,0,0,0,0,0,0,0,0,0,0,0,0,0,0,0,0,0,0,0,0,0,0,0,0,0,0,0,0,0,0,0,0,0,0,1,3,8,11,13,14,18,21,30,46,54,58,67,71,89,103,110,127,146,153,169,185,219,253,347,400,431,453,490,533,544,594,637,657,674,705,718,757,785,799,813,833,849,874,894,918,933,943,956,964,973,983,1004,1024,1037,1051,1069,1091,1111,1142,1162,1170,1171,1205,1221,1245,1288,1321,1376,1409,1447,1480
198,Columbus-Marion-Zanesville, OH,-83.02312,40.05772,0,0,0,0,0,0,0,0,0,0,0,0,0,0,0,0,0,0,0,0,0,0,0,0,0,0,0,0,0,0,0,0,0,0,0,0,0,0,0,0,0,0,0,0,0,0,0,0,0,0,0,0,1,3,3,4,8,12,19,28,45,59,100,123,153,210,300,333,384,450,533,604,692,792,872,947,1025,1110,1193,1270,1341,1420,1567,1657,1856,2127,2457,3160,4313,5318,5829,5911,6032,6160,6254,6384,6506,6621,6790,7056,7298,7466,7745,7948,8090,8264,8442,8725,8875,8963,9184,9372,9513,9699,9849,10015,10158,10276,10441,10582,10721,10896,11059,11183,11324,11463
200,Columbus-West Point, MS,-88.56899,33.54185,0,0,0,0,0,0,0,0,0,0,0,0,0,0,0,0,0,0,0,0,0,0,0,0,0,0,0,0,0,0,0,0,0,0,0,0,0,0,0,0,0,0,0,0,0,0,0,0,0,0,0,0,0,0,0,0,0,0,0,1,5,7,7,7,9,11,12,12,12,15,16,17,19,20,22,24,26,28,32,36,39,42,45,45,48,51,52,56,57,60,62,63,64,67,73,72,76,82,83,94,100,105,108,113,122,122,134,137,144,149,152,159,165,175,186,191,201,205,218,221,226,234,254,259,263,267
204,Corpus Christi-Kingsville-Alice, TX,-97.57033,27.74907,0,0,0,0,0,0,0,0,0,0,0,0,0,0,0,0,0,0,0,0,0,0,0,0,0,0,0,0,0,0,0,0,0,0,0,0,0,0,0,0,0,0,0,0,0,0,0,0,0,0,0,0,0,0,0,0,0,0,0,1,1,1,6,11,16,20,24,25,27,37,37,45,46,55,63,66,73,78,82,85,85,89,89,95,99,99,105,107,109,109,109,111,114,114,119,121,122,128,128,128,129,137,139,140,146,148,153,159,169,174,179,194,221,235,262,286,289,290,298,306,317,321,321,324,324,326
206,Dallas-Fort Worth, TX-OK,-96.92479,32.83116,0,0,0,0,0,0,0,0,0,0,0,0,0,0,0,0,0,0,0,0,0,0,0,0,0,0,0,0,0,0,0,0,0,0,0,0,0,0,0,0,0,0,0,0,0,0,0,1,3,6,7,16,18,22,33,43,66,108,148,194,252,289,336,459,574,736,872,966,1140,1334,1484,1712,1916,2159,2249,2363,2585,2783,3061,3290,3467,3678,3897,4064,4279,4533,4772,5010,5129,5245,5418,5655,6046,6334,6568,6824,6863,7201,7357,7850,8074,8527,8911,9264,9608,10011,10576,10912,11418,11806,12574,12715,13349,13944,14351,14686,15002,15361,15796,16002,16598,16802,17250,17560,17788,18053
209,Davenport-Moline, IA-IL,-90.74021,41.51605,0,0,0,0,0,0,0,0,0,0,0,0,0,0,0,0,0,0,0,0,0,0,0,0,0,0,0,0,0,0,0,0,0,0,0,0,0,0,0,0,0,0,0,0,0,0,0,0,0,0,0,0,0,0,0,0,0,1,1,3,4,5,7,12,16,20,27,28,41,52,65,79,100,117,140,169,203,242,272,306,338,355,383,421,466,516,556,597,630,677,706,745,770,826,884,907,941,972,1014,1040,1071,1116,1157,1197,1238,1275,1311,1343,1381,1409,1426,1448,1473,1486,1517,1534,1555,1571,1574,1586,1607,1626,1638,1645,1660,1667
212,Dayton-Springfield-Kettering, OH,-84.19774,39.90628,0,0,0,0,0,0,0,0,0,0,0,0,0,0,0,0,0,0,0,0,0,0,0,0,0,0,0,0,0,0,0,0,0,0,0,0,0,0,0,0,0,0,0,0,0,0,0,0,0,0,0,0,0,0,0,1,2,4,5,14,21,27,36,40,43,60,69,86,105,122,147,158,179,199,230,278,321,350,367,380,406,441,454,461,473,485,498,513,517,524,530,541,553,567,581,588,603,614,634,647,658,685,696,704,713,721,742,793,888,943,1036,1060,1087,1126,1178,1208,1225,1256,1279,1321,1357,1376,1421,1457,1489,1502
216,Denver-Aurora, CO,-104.67895,39.83847,0,0,0,0,0,0,0,0,0,0,0,0,0,0,0,0,0,0,0,0,0,0,0,0,0,0,0,0,0,0,0,0,0,0,0,0,0,0,0,0,0,0,0,2,6,6,6,8,11,16,22,40,56,81,88,110,132,165,217,280,354,432,535,644,819,1000,1208,1370,1621,1892,2135,2405,2719,2975,3246,3396,3615,3816,4231,4534,4813,5155,5479,5705,5972,6287,6605,6918,7117,7444,7762,8083,8399,9235,9643,9951,10298,10642,11020,11434,11823,12183,12519,12766,13203,13600,14063,14405,14795,15009,15177,15415,15704,16017,16330,16617,16874,17083,17326,17593,17841,18073,18363,18440,18594,18806
217,DeRidder-Fort Polk South, LA,-93.29485,30.78314,0,0,0,0,0,0,0,0,0,0,0,0,0,0,0,0,0,0,0,0,0,0,0,0,0,0,0,0,0,0,0,0,0,0,0,0,0,0,0,0,0,0,0,0,0,0,0,0,0,0,0,0,0,0,0,0,0,0,0,1,1,1,4,5,5,6,6,6,8,8,14,17,21,26,29,33,34,34,37,40,41,41,42,42,44,47,49,49,49,50,50,50,49,50,51,51,52,53,53,55,58,58,59,59,60,61,61,61,64,64,64,64,67,68,69,71,72,73,73,73,76,79,79,79,82,82
218,Des Moines-Ames-West Des Moines, IA,-93.62034,41.67980,0,0,0,0,0,0,0,0,0,0,0,0,0,0,0,0,0,0,0,0,0,0,0,0,0,0,0,0,0,0,0,0,0,0,0,0,0,0,0,0,0,0,0,0,0,0,0,0,0,0,0,0,0,1,3,3,8,11,11,16,17,19,26,31,37,44,64,77,94,116,128,142,161,171,189,193,199,207,217,227,246,262,280,307,326,374,403,428,475,547,589,614,675,816,938,1058,1103,1201,1383,1529,1856,2175,2347,2609,2775,2896,3120,3240,3300,3363,3528,3631,3776,3876,4034,4138,4232,4341,4502,4629,4809,4965,5080,5221,5329,5387
220,Detroit-Warren-Ann Arbor, MI,-83.28942,42.47217,0,0,0,0,0,0,0,0,0,0,0,0,0,0,0,0,0,0,0,0,0,0,0,0,0,0,0,0,0,0,0,0,0,0,0,0,0,0,0,0,0,0,0,0,0,0,0,0,0,2,2,9,17,25,44,48,102,225,370,485,964,1230,1647,2112,2622,3365,4269,4990,5859,6856,8349,9661,11423,12719,13991,15367,16893,18148,19139,20185,21238,21743,22640,23810,24661,25189,26258,26785,27234,27635,27980,28983,29927,30752,31005,31484,31663,32256,32887,33380,33946,34235,34604,34610,34807,35165,35414,35760,36014,36218,36399,36589,36809,37495,37729,37954,38094,38191,38429,38683,38851,38980,39201,39345,39436,39580
221,Dixon-Sterling, IL,-89.69164,41.75173,0,0,0,0,0,0,0,0,0,0,0,0,0,0,0,0,0,0,0,0,0,0,0,0,0,0,0,0,0,0,0,0,0,0,0,0,0,0,0,0,0,0,0,0,0,0,0,0,0,0,0,0,0,0,0,1,1,1,1,1,1,1,1,1,1,2,2,3,4,5,5,6,9,17,20,20,24,27,32,36,37,39,42,43,44,45,48,53,53,58,59,63,67,71,78,81,87,98,99,108,110,115,117,117,135,147,150,164,165,167,167,179,180,181,186,192,196,197,200,203,205,206,209,211,211,209
222,Dothan-Ozark, AL,-85.41972,31.27722,0,0,0,0,0,0,0,0,0,0,0,0,0,0,0,0,0,0,0,0,0,0,0,0,0,0,0,0,0,0,0,0,0,0,0,0,0,0,0,0,0,0,0,0,0,0,0,0,0,0,0,0,0,0,0,0,0,0,0,0,0,1,1,2,3,3,4,6,9,9,8,10,15,18,20,30,33,35,44,49,53,64,73,79,82,88,96,101,107,113,118,122,128,127,127,132,134,139,144,150,150,157,166,169,170,171,174,181,188,191,197,214,218,231,242,251,251,260,271,294,300,311,324,336,356,384
232,Eau Claire-Menomonie, WI,-91.36373,44.85965,0,0,0,0,0,0,0,0,0,0,0,0,0,0,0,0,0,0,0,0,0,0,0,0,0,0,0,0,0,0,0,0,0,0,0,0,0,0,0,0,0,0,0,0,0,0,0,0,0,0,0,0,0,0,0,0,0,2,5,5,6,6,6,7,8,12,13,17,20,22,25,28,35,35,42,42,42,42,45,47,48,50,50,50,50,51,51,52,51,51,51,52,52,52,53,54,54,57,57,59,60,67,73,78,80,85,88,91,97,97,101,105,111,116,122,125,126,131,137,141,147,156,162,167,174,177
233,Edwards-Glenwood Springs, CO,-106.92112,39.59228,0,0,0,0,0,0,0,0,0,0,0,0,0,0,0,0,0,0,0,0,0,0,0,0,0,0,0,0,0,0,0,0,0,0,0,0,0,0,0,0,0,0,0,0,1,1,1,2,3,13,21,26,31,36,47,47,52,66,80,96,104,118,124,154,186,211,231,239,273,290,362,393,416,416,423,441,459,462,483,525,536,556,564,576,593,594,598,610,612,614,616,616,620,646,654,681,684,690,699,708,708,692,699,700,698,704,708,711,715,716,716,726,728,730,735,739,741,741,743,743,748,754,757,759,757,771
236,Elmira-Corning, NY,-77.15906,42.22189,0,0,0,0,0,0,0,0,0,0,0,0,0,0,0,0,0,0,0,0,0,0,0,0,0,0,0,0,0,0,0,0,0,0,0,0,0,0,0,0,0,0,0,0,0,0,0,0,0,0,0,0,0,0,0,0,0,0,2,2,2,6,11,11,18,23,25,32,34,39,60,65,81,96,111,122,124,142,151,176,177,207,207,211,220,224,225,253,254,268,270,289,247,250,307,313,317,323,333,338,339,341,343,345,347,351,353,355,357,358,359,360,362,362,364,367,368,369,370,371,372,375,376,376,376,376
238,El Paso-Las Cruces, TX-NM,-106.32651,31.85811,0,0,0,0,0,0,0,0,0,0,0,0,0,0,0,0,0,0,0,0,0,0,0,0,0,0,0,0,0,0,0,0,0,0,0,0,0,0,0,0,0,0,0,0,0,0,0,0,0,0,0,0,1,1,2,3,3,6,6,7,9,19,23,29,41,44,55,59,57,71,75,96,108,125,142,162,167,188,231,269,296,318,342,350,400,447,509,549,574,604,613,669,762,800,816,896,928,958,987,1031,1071,1114,1145,1168,1202,1260,1316,1396,1477,1543,1585,1593,1662,1715,1877,1937,2020,2081,2171,2256,2408,2416,2635,2747,2799,2822
240,Erie-Meadville, PA,-80.03972,41.96488,0,0,0,0,0,0,0,0,0,0,0,0,0,0,0,0,0,0,0,0,0,0,0,0,0,0,0,0,0,0,0,0,0,0,0,0,0,0,0,0,0,0,0,0,0,0,0,0,0,0,0,0,0,0,0,0,1,1,1,1,2,3,5,5,6,8,9,10,17,18,20,22,22,24,26,36,37,37,45,49,54,54,55,57,58,62,64,74,74,76,77,79,87,91,98,96,101,105,106,106,106,109,110,110,112,115,121,133,140,144,144,145,146,148,150,155,158,166,168,184,198,211,231,231,239,245
244,Fargo-Wahpeton, ND-MN,-97.09101,46.91493,0,0,0,0,0,0,0,0,0,0,0,0,0,0,0,0,0,0,0,0,0,0,0,0,0,0,0,0,0,0,0,0,0,0,0,0,0,0,0,0,0,0,0,0,0,0,0,0,0,0,0,0,0,0,0,1,1,1,2,2,3,3,6,9,11,16,23,25,29,39,42,52,56,63,69,86,91,99,112,124,133,156,166,175,188,206,207,258,281,322,337,369,392,436,488,540,580,640,663,689,726,779,799,838,862,919,950,1000,1033,1060,1088,1139,1210,1284,1331,1417,1460,1503,1569,1629,1739,1824,1874,1925,1968,1996
246,Fayetteville-Sanford-Lumberton, NC,-79.07255,35.05028,0,0,0,0,0,0,0,0,0,0,0,0,0,0,0,0,0,0,0,0,0,0,0,0,0,0,0,0,0,0,0,0,0,0,0,0,0,0,0,0,0,0,0,0,0,0,0,0,0,0,0,0,1,2,3,3,5,11,12,15,16,17,21,26,29,29,31,43,46,56,62,72,82,98,104,114,139,165,193,215,246,259,266,274,289,300,331,347,358,367,401,453,500,604,686,708,766,809,900,954,1027,1111,1113,1144,1274,1356,1402,1429,1483,1552,1584,1644,1741,1823,1852,1904,1927,1943,1943,2093,2160,2266,2293,2337,2367,2379
258,Fort Wayne-Huntington-Auburn, IN,-85.11893,41.15250,0,0,0,0,0,0,0,0,0,0,0,0,0,0,0,0,0,0,0,0,0,0,0,0,0,0,0,0,0,0,0,0,0,0,0,0,0,0,0,0,0,0,0,0,0,0,0,0,2,2,2,2,2,2,2,2,2,4,6,6,6,6,9,10,11,25,29,33,36,39,52,60,76,87,96,124,130,136,151,170,188,202,267,228,250,302,353,385,396,424,435,448,495,514,543,560,610,631,668,707,740,770,790,853,932,965,993,1037,1056,1077,1098,1137,1155,1188,1250,1280,1297,1336,1357,1417,1459,1523,1559,1596,1647,1687
260,Fresno-Madera-Hanford, CA,-119.70287,36.56614,0,0,0,0,0,0,0,0,0,0,0,0,0,0,0,0,0,0,0,0,0,0,0,0,0,0,0,0,0,0,0,0,0,0,0,0,0,0,0,0,0,0,0,0,0,1,2,2,2,3,3,2,2,2,3,3,3,4,9,9,9,9,19,24,26,37,44,60,63,77,95,112,127,133,136,141,157,179,192,211,232,243,244,267,297,311,346,364,377,379,419,439,493,529,529,550,566,613,663,680,784,807,842,856,924,1065,1065,1119,1172,1227,1331,1372,1378,1491,1501,1598,1662,1662,1784,1836,1877,1943,2005,2049,2213,2255
264,Gainesville-Lake City, FL,-82.45363,29.79248,0,0,0,0,0,0,0,0,0,0,0,0,0,0,0,0,0,0,0,0,0,0,0,0,0,0,0,0,0,0,0,0,0,0,0,0,0,0,0,0,0,0,0,0,0,0,0,0,0,1,1,2,1,1,1,4,7,11,15,25,37,38,40,48,52,60,71,76,84,92,95,101,116,128,140,148,161,167,176,200,208,253,225,236,241,248,250,256,265,275,283,286,294,307,309,317,324,332,341,349,361,367,403,411,411,417,427,434,436,441,449,457,462,466,469,468,475,482,485,494,500,512,517,529,537,544
266,Grand Rapids-Kentwood-Muskegon, MI,-85.67630,43.03757,0,0,0,0,0,0,0,0,0,0,0,0,0,0,0,0,0,0,0,0,0,0,0,0,0,0,0,0,0,0,0,0,0,0,0,0,0,0,0,0,0,0,0,0,0,0,0,0,0,0,0,4,4,4,7,7,7,9,14,25,30,42,51,58,69,79,91,118,154,172,192,209,231,256,282,298,331,359,404,432,456,480,519,551,598,656,731,785,854,922,1028,1195,1296,1416,1464,1597,1690,1946,2087,2219,2380,2513,2673,2753,2851,3002,3074,3187,3304,3400,3465,3581,3640,3896,4017,4116,4211,4317,4408,4576,4734,4863,4992,5082,5134,5178
267,Green Bay-Shawano, WI,-88.01563,44.46797,0,0,0,0,0,0,0,0,0,0,0,0,0,0,0,0,0,0,0,0,0,0,0,0,0,0,0,0,0,0,0,0,0,0,0,0,0,0,0,0,0,0,0,0,0,0,0,0,0,0,0,0,0,0,0,0,1,2,2,3,3,3,3,3,4,5,6,6,7,10,12,19,26,26,32,44,47,47,59,65,70,80,90,112,130,156,199,223,234,305,334,422,477,628,745,802,880,948,1004,1092,1218,1319,1411,1505,1605,1719,1776,1852,1912,1977,2008,2042,2068,2086,2125,2163,2189,2197,2214,2233,2278,2306,2344,2351,2357,2357
268,Greensboro--Winston-Salem--High Point, NC,-80.01427,36.03000,0,0,0,0,0,0,0,0,0,0,0,0,0,0,0,0,0,0,0,0,0,0,0,0,0,0,0,0,0,0,0,0,0,0,0,0,0,0,0,0,0,0,0,0,0,0,0,0,0,0,3,2,2,2,2,3,3,9,13,23,27,29,40,47,54,83,103,120,132,156,198,233,280,310,330,365,409,425,444,457,485,492,531,545,541,557,581,590,599,603,646,716,731,800,858,929,959,1033,1093,1200,1242,1340,1356,1374,1434,1583,1629,1710,1777,1872,1966,2058,2230,2383,2540,2608,2771,2880,2880,3067,3125,3413,3548,3649,3796,3897
272,Greenville-Kinston-Washington, NC,-77.44089,35.44915,0,0,0,0,0,0,0,0,0,0,0,0,0,0,0,0,0,0,0,0,0,0,0,0,0,0,0,0,0,0,0,0,0,0,0,0,0,0,0,0,0,0,0,0,0,0,0,0,0,0,0,0,0,0,0,0,0,1,2,2,3,6,9,11,14,14,16,21,27,35,37,41,48,51,52,53,64,72,82,86,89,90,94,98,101,110,116,121,128,129,138,149,151,157,221,174,176,192,202,212,214,232,233,241,258,264,271,289,299,308,316,327,341,353,364,376,390,401,401,425,429,460,471,479,492,495
273,Greenville-Spartanburg-Anderson, SC,-82.31119,34.82703,0,0,0,0,0,0,0,0,0,0,0,0,0,0,0,0,0,0,0,0,0,0,0,0,0,0,0,0,0,0,0,0,0,0,0,0,0,0,0,0,0,0,0,0,0,0,0,1,1,1,1,1,1,1,4,5,6,10,20,33,35,54,64,89,89,101,121,147,175,212,253,299,340,375,385,425,476,476,571,652,698,722,733,785,817,889,915,973,986,1002,1001,1058,1095,1100,1113,1186,1250,1273,1310,1378,1402,1439,1458,1500,1518,1534,1589,1640,1697,1732,1752,1789,1817,1854,1910,1959,2015,2046,2087,2106,2152,2203,2253,2342,2365,2468
276,Harrisburg-York-Lebanon, PA,-76.79787,40.21141,0,0,0,0,0,0,0,0,0,0,0,0,0,0,0,0,0,0,0,0,0,0,0,0,0,0,0,0,0,0,0,0,0,0,0,0,0,0,0,0,0,0,0,0,0,0,0,0,0,0,0,3,3,3,5,10,12,14,22,27,30,32,44,52,60,84,106,128,150,185,225,276,322,410,480,543,632,700,758,855,903,980,1050,1152,1213,1281,1420,1534,1615,1672,1747,1810,1882,1981,2051,2134,2186,2249,2314,2411,2467,2530,2600,2667,2741,2775,2848,2916,2984,3035,3082,3132,3190,3255,3314,3386,3439,3472,3510,3553,3616,3665,3716,3797,3837,3885
277,Harrisonburg-Staunton, VA,-78.89782,38.42355,0,0,0,0,0,0,0,0,0,0,0,0,0,0,0,0,0,0,0,0,0,0,0,0,0,0,0,0,0,0,0,0,0,0,0,0,0,0,0,0,0,0,0,0,0,0,0,0,0,0,0,1,1,1,1,1,1,1,1,1,3,3,4,5,6,9,9,9,11,13,22,31,40,47,52,55,57,72,77,109,146,147,161,176,194,216,327,367,370,398,432,511,561,585,610,611,633,683,695,732,774,801,816,840,883,934,951,984,1017,1023,1046,1051,1088,1110,1138,1155,1161,1172,1195,1239,1281,1304,1323,1332,1361,1397
278,Hartford-East Hartford, CT,-72.63748,41.75268,0,0,0,0,0,0,0,0,0,0,0,0,0,0,0,0,0,0,0,0,0,0,0,0,0,0,0,0,0,0,0,0,0,0,0,0,0,0,0,0,0,0,0,0,0,0,0,0,0,0,0,0,1,2,4,7,12,25,39,39,77,89,121,167,202,262,312,374,454,532,625,709,889,974,1012,1185,1391,1391,1960,2163,2478,2585,2999,3153,3401,3749,3987,4229,4428,4962,5137,5381,5626,5954,6194,6482,6701,6794,6986,7259,7667,7903,7903,7991,8268,8489,8778,8964,9209,9386,9488,9700,9933,10187,10438,10693,11220,11504,11647,11881,11961,12161,12313,12549,12708,12839
279,Hattiesburg-Laurel, MS,-89.26984,31.44815,0,0,0,0,0,0,0,0,0,0,0,0,0,0,0,0,0,0,0,0,0,0,0,0,0,0,0,0,0,0,0,0,0,0,0,0,0,0,0,0,0,0,0,0,0,0,0,0,0,0,1,3,3,3,3,3,4,6,6,7,13,14,18,19,22,23,28,31,31,37,48,51,65,76,89,97,116,118,145,162,187,206,228,249,266,296,313,331,355,370,389,409,427,455,484,504,521,535,551,584,631,656,671,721,756,779,821,862,906,923,936,974,989,1048,1100,1159,1195,1217,1255,1287,1336,1395,1436,1478,1523,1566
284,Hot Springs-Malvern, AR,-93.11350,34.52939,0,0,0,0,0,0,0,0,0,0,0,0,0,0,0,0,0,0,0,0,0,0,0,0,0,0,0,0,0,0,0,0,0,0,0,0,0,0,0,0,0,0,0,0,0,0,0,0,0,0,0,0,0,0,0,0,0,0,0,0,3,9,10,17,19,21,21,26,27,32,33,42,42,45,48,48,53,58,69,74,80,89,109,110,111,113,115,114,115,116,117,117,118,119,120,121,124,130,131,135,136,136,138,137,137,139,140,140,140,145,145,147,149,155,156,158,158,159,159,159,160,161,162,163,164,164
288,Houston-The Woodlands, TX,-95.43954,29.81724,0,0,0,0,0,0,0,0,0,0,0,0,0,0,0,0,0,0,0,0,0,0,0,0,0,0,0,0,0,0,0,0,0,0,0,0,0,0,0,0,0,0,0,3,4,8,11,12,12,14,19,21,27,27,30,35,52,67,108,136,148,169,258,325,428,479,748,871,950,1177,1394,1581,1803,2059,2303,2825,3231,3564,4347,4663,5076,5198,5354,5616,5953,6216,6485,6820,7026,7233,7523,7672,8009,8247,8313,8530,8621,8913,9300,9645,9977,10219,10453,10659,10877,11107,11328,11650,11948,12058,12412,12713,13007,13274,13563,13729,14145,14379,14686,15139,15397,15532,15839,16067,16159,16503
290,Huntsville-Decatur, AL,-86.75646,34.65416,0,0,0,0,0,0,0,0,0,0,0,0,0,0,0,0,0,0,0,0,0,0,0,0,0,0,0,0,0,0,0,0,0,0,0,0,0,0,0,0,0,0,0,0,0,0,0,0,0,0,0,0,2,1,1,2,2,6,8,10,17,22,27,46,68,72,96,115,131,144,150,163,179,184,198,211,220,224,251,258,267,270,274,277,278,288,311,291,295,300,304,308,307,310,310,328,333,346,348,351,353,363,367,374,380,385,398,407,418,422,428,437,444,466,476,478,479,492,497,521,530,542,562,574,598,640
292,Idaho Falls-Rexburg-Blackfoot, ID,-111.76200,43.56980,0,0,0,0,0,0,0,0,0,0,0,0,0,0,0,0,0,0,0,0,0,0,0,0,0,0,0,0,0,0,0,0,0,0,0,0,0,0,0,0,0,0,0,0,0,0,0,0,0,0,0,0,0,0,0,1,1,1,3,3,3,4,6,6,7,6,7,7,8,12,12,12,13,15,16,17,18,19,19,24,24,25,26,27,29,41,42,42,42,42,42,42,46,46,46,46,46,46,46,49,50,51,51,51,53,53,56,56,58,59,60,60,60,62,62,68,68,68,68,68,68,68,68,68,68,68
294,Indianapolis-Carmel-Muncie, IN,-86.10900,39.75425,0,0,0,0,0,0,0,0,0,0,0,0,0,0,0,0,0,0,0,0,0,0,0,0,0,0,0,0,0,0,0,0,0,0,0,0,0,0,0,0,0,0,0,0,1,1,2,3,4,7,9,9,10,14,17,18,23,32,45,77,138,138,252,345,456,706,873,1062,1269,1513,1807,2127,2361,2682,2999,3352,3702,3982,4201,4583,4884,5168,5349,5490,5719,5923,6266,6488,6892,7147,7363,7507,7823,8107,8480,8613,8810,9048,9357,9738,10171,10581,10877,11101,11316,11828,12126,12439,12784,12949,13253,13459,13611,13889,14209,14509,14780,14976,15198,15396,15704,15882,16073,16244,16349,16481
296,Ithaca-Cortland, NY,-76.39110,42.47889,0,0,0,0,0,0,0,0,0,0,0,0,0,0,0,0,0,0,0,0,0,0,0,0,0,0,0,0,0,0,0,0,0,0,0,0,0,0,0,0,0,0,0,0,0,0,0,0,0,0,0,0,1,1,2,2,6,6,11,11,17,17,18,21,26,36,55,64,80,83,86,91,101,107,109,116,119,121,123,124,125,134,134,135,141,142,144,144,144,144,148,148,144,146,154,154,154,154,155,156,156,156,157,157,157,157,159,160,161,161,161,162,167,169,169,172,173,176,178,181,181,184,187,190,193,193
297,Jackson-Brownsville, TN,-88.91171,35.69256,0,0,0,0,0,0,0,0,0,0,0,0,0,0,0,0,0,0,0,0,0,0,0,0,0,0,0,0,0,0,0,0,0,0,0,0,0,0,0,0,0,0,0,0,0,0,0,0,0,0,0,0,0,0,0,0,0,0,0,0,2,2,4,5,6,7,7,10,10,16,18,24,31,35,39,45,69,69,78,93,94,98,105,111,111,117,116,128,143,145,150,150,158,163,168,174,180,205,211,215,221,226,232,241,239,237,240,245,250,252,262,266,265,268,271,274,275,276,276,276,276,278,280,282,290,292
298,Jackson-Vicksburg-Brookhaven, MS,-90.26891,32.37667,0,0,0,0,0,0,0,0,0,0,0,0,0,0,0,0,0,0,0,0,0,0,0,0,0,0,0,0,0,0,0,0,0,0,0,0,0,0,0,0,0,0,0,0,0,0,0,0,0,0,0,0,1,1,4,8,8,11,19,19,52,59,77,96,112,133,153,176,176,219,262,280,329,343,392,406,438,465,529,586,614,654,676,695,765,818,866,900,943,986,1028,1091,1143,1214,1267,1297,1345,1396,1458,1504,1605,1662,1683,1764,1828,1911,1974,2142,2201,2254,2312,2360,2404,2512,2577,2651,2699,2723,2782,2845,2918,3055,3157,3232,3263,3309
300,Jacksonville-St. Marys-Palatka, FL-GA,-81.68981,30.21348,0,0,0,0,0,0,0,0,0,0,0,0,0,0,0,0,0,0,0,0,0,0,0,0,0,0,0,0,0,0,0,0,0,0,0,0,0,0,0,0,0,0,0,0,0,0,0,0,0,1,2,5,3,9,9,17,22,24,29,43,67,82,90,106,150,175,214,233,285,363,384,493,562,649,694,768,836,882,944,982,1059,1118,1147,1180,1217,1274,1357,1387,1436,1485,1508,1532,1590,1602,1616,1643,1655,1687,1697,1708,1731,1759,1771,1803,1820,1817,1834,1843,1900,1934,1945,1962,1989,2014,2055,2069,2102,2128,2149,2184,2225,2252,2286,2328,2364,2386
304,Johnson City-Kingsport-Bristol, TN-VA,-82.36397,36.46753,0,0,0,0,0,0,0,0,0,0,0,0,0,0,0,0,0,0,0,0,0,0,0,0,0,0,0,0,0,0,0,0,0,0,0,0,0,0,0,0,0,0,0,0,0,0,0,0,0,1,1,1,1,1,1,1,1,1,3,3,3,8,9,10,15,21,26,29,29,36,48,49,54,57,64,73,84,92,108,119,128,134,144,147,146,150,155,156,158,158,160,160,164,165,173,182,184,186,189,190,195,199,202,209,215,210,212,216,217,226,230,230,229,235,236,235,235,235,240,240,244,244,248,249,249,252
306,Johnstown-Somerset, PA,-78.83706,40.28920,0,0,0,0,0,0,0,0,0,0,0,0,0,0,0,0,0,0,0,0,0,0,0,0,0,0,0,0,0,0,0,0,0,0,0,0,0,0,0,0,0,0,0,0,0,0,0,0,0,0,0,0,0,0,0,0,0,0,0,0,0,1,2,3,3,3,3,3,4,4,6,7,7,9,11,13,14,16,17,21,23,25,27,27,28,28,29,34,37,38,39,40,40,42,46,46,46,48,51,54,57,61,62,64,64,67,69,72,74,76,76,76,77,77,81,85,87,90,90,91,92,92,93,94,94,94
308,Jonesboro-Paragould, AR,-90.62109,35.85877,0,0,0,0,0,0,0,0,0,0,0,0,0,0,0,0,0,0,0,0,0,0,0,0,0,0,0,0,0,0,0,0,0,0,0,0,0,0,0,0,0,0,0,0,0,0,0,0,0,0,0,0,0,0,0,0,0,0,0,0,3,8,8,8,8,8,8,10,10,14,17,18,20,22,24,26,29,35,40,42,44,44,49,49,51,55,56,61,61,62,64,69,81,86,90,94,102,104,108,112,119,120,123,126,131,134,139,139,139,145,146,152,162,176,179,187,190,192,200,210,234,247,257,261,268,274
309,Joplin-Miami, MO-OK,-94.53832,36.99075,0,0,0,0,0,0,0,0,0,0,0,0,0,0,0,0,0,0,0,0,0,0,0,0,0,0,0,0,0,0,0,0,0,0,0,0,0,0,0,0,0,0,0,0,0,0,0,0,0,0,0,0,0,0,0,0,0,0,0,1,1,1,1,3,6,6,12,14,16,19,19,21,23,27,28,31,35,36,39,44,46,44,56,58,58,61,61,61,64,64,66,68,69,63,63,63,63,66,65,65,68,69,69,69,69,69,69,69,73,73,73,74,75,75,77,76,77,80,80,80,80,83,83,83,83,83
310,Kalamazoo-Battle Creek-Portage, MI,-85.35943,42.19532,0,0,0,0,0,0,0,0,0,0,0,0,0,0,0,0,0,0,0,0,0,0,0,0,0,0,0,0,0,0,0,0,0,0,0,0,0,0,0,0,0,0,0,0,0,0,0,0,0,0,0,0,0,0,0,0,0,0,0,1,2,6,7,11,17,20,26,34,44,47,60,72,87,98,118,125,137,152,173,187,196,206,224,235,259,291,318,349,370,398,425,449,477,529,545,570,582,620,653,687,733,781,797,832,848,905,933,954,993,1005,1035,1064,1083,1124,1143,1182,1189,1205,1232,1260,1279,1307,1332,1340,1352,1358
312,Kansas City-Overland Park-Kansas City, MO-KS,-94.72315,39.14635,0,0,0,0,0,0,0,0,0,0,0,0,0,0,0,0,0,0,0,0,0,0,0,0,0,0,0,0,0,0,0,0,0,0,0,0,0,0,0,0,0,0,0,0,0,0,1,1,1,1,4,5,7,7,10,18,25,40,65,73,82,105,125,176,249,300,362,411,460,559,624,701,751,871,891,1029,1085,1177,1245,1348,1476,1541,1596,1657,1693,1807,1877,1927,1950,1983,2031,2119,2178,2267,2340,2390,2435,2478,2553,2823,2987,3153,3410,3665,3839,4109,4343,4476,4591,4684,4744,4792,4870,4953,5056,5118,5173,5322,5375,5461,5546,5660,5736,5833,5935,5994
313,Kennewick-Richland-Walla Walla, WA,-119.19761,46.35024,0,0,0,0,0,0,0,0,0,0,0,0,0,0,0,0,0,0,0,0,0,0,0,0,0,0,0,0,0,0,0,0,0,0,0,0,0,0,0,0,0,0,0,0,0,0,0,0,0,0,0,0,0,0,0,0,1,1,5,10,11,15,15,21,28,56,58,77,145,128,148,179,189,205,229,251,259,270,318,347,371,382,402,421,474,461,483,510,531,538,551,579,639,670,699,708,720,737,760,776,846,929,969,1001,1009,1031,1048,1060,1082,1088,1109,1116,1122,1137,1153,1174,1184,1206,1222,1232,1244,1260,1260,1302,1315,1345
314,Kerrville-Fredericksburg, TX,-99.25346,30.12179,0,0,0,0,0,0,0,0,0,0,0,0,0,0,0,0,0,0,0,0,0,0,0,0,0,0,0,0,0,0,0,0,0,0,0,0,0,0,0,0,0,0,0,0,0,0,0,0,0,0,0,0,0,0,0,0,0,0,0,0,0,0,0,0,0,0,0,0,0,2,2,2,3,4,4,5,3,3,3,3,3,3,3,3,4,5,5,5,5,5,5,5,6,6,6,7,7,6,6,6,7,8,8,9,9,10,10,11,13,13,13,13,13,14,14,14,14,14,15,16,16,16,16,21,21,21
315,Knoxville-Morristown-Sevierville, TN,-83.94566,35.92702,0,0,0,0,0,0,0,0,0,0,0,0,0,0,0,0,0,0,0,0,0,0,0,0,0,0,0,0,0,0,0,0,0,0,0,0,0,0,0,0,0,0,0,0,0,0,0,0,0,0,1,2,3,3,4,5,5,5,7,15,17,27,33,41,52,66,74,83,102,134,154,175,189,198,217,227,264,274,290,304,312,314,327,332,332,343,350,368,368,372,388,388,409,415,432,441,449,453,469,483,492,507,519,556,562,548,556,562,575,581,604,616,632,636,645,647,648,703,714,714,738,763,778,788,797,813
316,Kokomo-Peru, IN,-86.09469,40.56364,0,0,0,0,0,0,0,0,0,0,0,0,0,0,0,0,0,0,0,0,0,0,0,0,0,0,0,0,0,0,0,0,0,0,0,0,0,0,0,0,0,0,0,0,0,0,0,0,0,1,1,1,1,1,2,2,2,5,5,5,7,7,7,7,7,8,10,13,17,19,23,28,30,35,34,39,46,56,55,60,61,64,66,67,77,83,82,89,90,94,97,102,107,119,125,182,245,254,269,276,283,294,306,321,331,341,346,356,365,370,382,390,387,387,391,415,415,427,433,463,470,473,479,482,495,504
318,Lafayette-Opelousas-Morgan City, LA,-91.93703,30.12225,0,0,0,0,0,0,0,0,0,0,0,0,0,0,0,0,0,0,0,0,0,0,0,0,0,0,0,0,0,0,0,0,0,0,0,0,0,0,0,0,0,0,0,0,0,0,0,0,0,0,1,0,0,0,0,0,0,2,10,12,12,17,22,34,49,84,99,102,159,286,377,547,628,551,598,654,699,769,828,910,947,998,1032,1054,1086,1118,1149,1193,1216,1249,1260,1306,1349,1379,1406,1413,1424,1436,1449,1480,1509,1528,1540,1554,1580,1604,1621,1629,1685,1692,1711,1722,1856,1879,1917,1938,1964,2039,2059,2066,2153,2193,2193,2218,2254,2361
320,Lafayette-West Lafayette-Frankfort, IN,-86.74519,40.39372,0,0,0,0,0,0,0,0,0,0,0,0,0,0,0,0,0,0,0,0,0,0,0,0,0,0,0,0,0,0,0,0,0,0,0,0,0,0,0,0,0,0,0,0,0,0,0,0,0,0,0,0,0,0,0,0,0,1,2,2,2,2,3,4,8,10,14,15,19,19,24,24,33,36,38,43,46,51,55,59,61,66,66,69,71,80,84,87,91,95,98,97,108,114,127,136,157,166,178,189,203,212,275,323,340,354,367,381,405,416,436,447,474,488,509,528,549,563,576,611,648,665,684,704,717,726
324,Lake Charles-Jennings, LA,-93.29204,30.23217,0,0,0,0,0,0,0,0,0,0,0,0,0,0,0,0,0,0,0,0,0,0,0,0,0,0,0,0,0,0,0,0,0,0,0,0,0,0,0,0,0,0,0,0,0,0,0,0,0,0,0,0,0,0,0,0,0,0,3,4,4,4,5,12,16,23,29,37,45,70,99,121,133,144,152,180,212,220,240,261,285,305,317,322,332,350,363,364,381,382,394,401,412,416,422,425,433,441,451,454,503,516,522,532,538,544,547,550,560,563,567,567,577,579,586,586,589,593,595,595,623,643,643,644,649,655
332,Las Vegas-Henderson, NV,-115.02672,36.23175,0,0,0,0,0,0,0,0,0,0,0,0,0,0,0,0,0,0,0,0,0,0,0,0,0,0,0,0,0,0,0,0,0,0,0,0,0,0,0,0,0,0,0,1,1,1,2,2,2,5,8,16,16,16,35,42,42,69,126,126,126,126,213,250,351,444,444,529,754,870,965,1129,1285,1425,1526,1615,1741,1885,2019,2154,2154,2334,2454,2524,2574,2578,2759,2903,2968,3026,3128,3247,3345,3474,3601,3696,3752,3828,3926,4015,4155,4262,4311,4450,4447,4512,4617,4617,4748,4794,4806,4917,5094,5094,5284,5356,5424,5521,5521,5708,5793,5874,5874,6199,6241,6285
336,Lexington-Fayette--Richmond--Frankfort, KY,-84.44556,38.02457,0,0,0,0,0,0,0,0,0,0,0,0,0,0,0,0,0,0,0,0,0,0,0,0,0,0,0,0,0,0,0,0,0,0,0,0,0,0,0,0,0,0,0,0,1,1,1,1,2,2,3,5,5,7,8,11,12,12,18,18,18,29,30,43,43,43,43,112,130,166,166,172,172,200,206,206,208,208,243,243,243,309,309,337,344,357,357,382,372,371,373,379,379,389,401,412,412,417,426,430,438,437,471,480,482,489,521,536,570,570,597,624,624,692,757,780,780,804,838,850,859,875,896,896,896,932
338,Lima-Van Wert-Celina, OH,-84.35652,40.64354,0,0,0,0,0,0,0,0,0,0,0,0,0,0,0,0,0,0,0,0,0,0,0,0,0,0,0,0,0,0,0,0,0,0,0,0,0,0,0,0,0,0,0,0,0,0,0,0,0,0,0,0,0,0,0,0,0,0,0,0,0,0,0,1,1,2,6,9,9,10,15,20,24,29,33,37,40,44,45,47,55,62,66,76,84,91,101,107,117,123,127,139,148,156,159,159,155,156,169,177,183,188,191,204,212,220,219,246,255,256,276,289,295,327,336,344,358,369,379,395,399,409,425,437,450,461
339,Lincoln-Beatrice, NE,-96.69827,40.76654,0,0,0,0,0,0,0,0,0,0,0,0,0,0,0,0,0,0,0,0,0,0,0,0,0,0,0,0,0,0,0,0,0,0,0,0,0,0,0,0,0,0,0,0,0,0,0,0,0,0,0,0,0,0,0,0,0,0,1,2,2,2,3,4,4,4,5,5,8,8,9,13,16,20,28,42,58,63,69,74,76,78,81,84,84,86,89,91,111,115,124,129,139,149,155,175,197,198,246,284,326,344,376,440,493,504,558,603,652,653,692,708,746,761,798,857,866,960,981,1003,1066,1073,1104,1118,1155,1169
340,Little Rock-North Little Rock, AR,-92.02627,34.37729,0,0,0,0,0,0,0,0,0,0,0,0,0,0,0,0,0,0,0,0,0,0,0,0,0,0,0,0,0,0,0,0,0,0,0,0,0,0,0,0,0,0,0,0,0,0,0,0,0,0,0,0,3,3,3,3,3,3,3,3,17,105,112,136,147,160,171,175,178,207,230,254,293,305,346,359,400,419,466,483,513,531,595,626,679,699,744,774,788,956,958,1173,1398,1499,1555,1582,1627,1638,1662,1751,1770,1784,1811,1844,1872,1932,1973,2003,2003,2070,2081,2129,2146,2192,2224,2297,2432,2451,2480,2494,2515,2538,2564,2593,2603,2620
348,Los Angeles-Long Beach, CA,-117.81759,34.23464,0,0,0,0,2,2,2,2,2,2,2,2,2,2,2,2,2,2,2,2,2,2,2,2,2,2,2,2,2,2,2,2,2,2,2,2,2,2,2,2,2,2,10,14,16,17,18,19,30,39,48,59,86,86,131,193,248,324,413,427,573,754,937,1144,1694,2050,2210,2629,3449,4143,4827,5608,6251,6585,8181,8799,9656,10564,11229,11958,12213,12909,13536,14601,15196,15764,16786,17649,18323,20180,21608,23092,24655,25847,26559,27432,28461,29217,31124,32237,33535,34350,35370,36157,38087,39381,40552,41575,43167,43765,44702,45837,47413,48746,50134,51427,52280,53201,54658,56453,58063,59504,60969,62094,63773,66041
350,Louisville/Jefferson County--Elizabethtown--Bardstown, KY-IN,-85.70154,38.23502,0,0,0,0,0,0,0,0,0,0,0,0,0,0,0,0,0,0,0,0,0,0,0,0,0,0,0,0,0,0,0,0,0,0,0,0,0,0,0,0,0,0,0,0,0,0,0,1,1,1,2,2,5,5,8,9,11,11,34,38,37,47,52,57,63,72,151,167,202,308,316,372,389,498,526,531,600,611,713,725,745,918,983,997,1053,1108,1128,1258,1399,1482,1552,1601,1673,1830,1867,1891,1971,2081,2152,2206,2290,2331,2405,2427,2541,2611,2691,2763,2838,2846,2907,2960,2981,3040,3095,3254,3266,3360,3423,3459,3507,3548,3606,3612,3621,3849
352,Lubbock-Plainview-Levelland, TX,-101.83749,33.64060,0,0,0,0,0,0,0,0,0,0,0,0,0,0,0,0,0,0,0,0,0,0,0,0,0,0,0,0,0,0,0,0,0,0,0,0,0,0,0,0,0,0,0,0,0,0,0,0,0,0,0,0,0,0,0,0,3,3,3,12,12,12,15,19,25,37,40,51,61,87,110,124,133,154,174,201,202,213,240,261,279,301,338,348,362,399,433,439,453,464,482,497,521,539,540,543,545,555,558,568,588,596,605,609,616,625,638,646,647,653,656,664,675,677,686,689,694,694,705,714,724,724,741,752,754,757
356,Macon-Bibb County--Warner Robins, GA,-83.72456,32.70071,0,0,0,0,0,0,0,0,0,0,0,0,0,0,0,0,0,0,0,0,0,0,0,0,0,0,0,0,0,0,0,0,0,0,0,0,0,0,0,0,0,0,0,0,0,0,0,0,0,0,0,0,0,0,0,0,1,3,5,6,7,8,14,21,28,32,36,41,45,65,76,91,108,119,133,139,161,185,202,213,225,232,254,292,302,344,431,436,446,473,476,506,526,549,557,561,580,604,642,648,676,691,699,748,766,793,813,822,801,807,809,837,838,862,881,930,932,937,970,975,999,1013,1032,1036,1046,1058
357,Madison-Janesville-Beloit, WI,-89.31343,42.91607,0,0,0,0,0,0,0,0,0,0,0,0,0,0,0,0,0,0,0,0,0,0,0,0,0,0,0,0,0,0,0,0,0,0,0,0,0,0,0,0,0,0,0,0,0,0,0,0,2,2,4,5,6,6,10,19,23,32,42,60,72,82,86,107,158,190,209,225,237,266,270,298,319,336,357,372,382,396,413,426,442,454,465,470,485,487,495,500,510,520,542,551,567,597,635,641,663,684,696,717,758,789,814,849,870,888,903,932,958,972,982,997,1023,1045,1073,1106,1134,1139,1149,1189,1242,1281,1300,1319,1354,1395
359,Mankato-New Ulm, MN,-94.17217,44.15977,0,0,0,0,0,0,0,0,0,0,0,0,0,0,0,0,0,0,0,0,0,0,0,0,0,0,0,0,0,0,0,0,0,0,0,0,0,0,0,0,0,0,0,0,0,0,0,0,0,0,0,0,0,0,0,0,4,4,4,5,7,8,8,8,9,10,10,11,12,14,14,15,15,21,22,25,33,33,34,35,35,35,35,36,37,37,37,37,37,38,39,42,42,43,44,46,47,50,51,57,59,64,69,75,76,79,82,82,94,95,97,98,102,104,114,122,130,136,146,152,165,182,185,191,196,203
360,Mansfield-Ashland-Bucyrus, OH,-82.65159,40.80321,0,0,0,0,0,0,0,0,0,0,0,0,0,0,0,0,0,0,0,0,0,0,0,0,0,0,0,0,0,0,0,0,0,0,0,0,0,0,0,0,0,0,0,0,0,0,0,0,0,0,0,0,0,0,0,0,1,2,2,2,2,2,6,6,6,8,10,9,12,13,15,17,19,24,29,31,32,37,43,46,52,57,65,67,73,79,83,101,112,106,108,109,112,116,121,123,123,127,131,133,140,147,151,155,157,164,171,184,198,204,213,224,236,247,257,264,268,273,278,284,290,299,300,304,308,312
361,Marinette-Iron Mountain, WI-MI,-87.94974,45.50488,0,0,0,0,0,0,0,0,0,0,0,0,0,0,0,0,0,0,0,0,0,0,0,0,0,0,0,0,0,0,0,0,0,0,0,0,0,0,0,0,0,0,0,0,0,0,0,0,0,0,0,0,0,0,0,0,0,0,0,0,0,0,0,0,0,1,1,1,1,1,2,3,3,3,4,7,7,7,8,9,9,9,9,10,10,10,10,11,11,11,12,12,15,15,15,15,15,17,17,18,20,20,22,22,22,25,25,28,29,29,34,34,34,35,36,38,39,40,40,43,43,45,46,46,47,47
362,Martin-Union City, TN,-88.93861,36.32869,0,0,0,0,0,0,0,0,0,0,0,0,0,0,0,0,0,0,0,0,0,0,0,0,0,0,0,0,0,0,0,0,0,0,0,0,0,0,0,0,0,0,0,0,0,0,0,0,0,0,0,0,0,0,0,0,0,0,0,0,0,1,0,0,0,0,1,2,2,2,3,3,3,3,7,7,8,9,9,10,12,12,14,14,14,14,14,15,17,17,17,17,21,22,28,31,30,30,33,36,37,38,38,41,41,39,39,40,40,40,40,40,40,41,41,41,43,45,46,46,46,47,50,50,50,53
365,McAllen-Edinburg, TX,-98.20827,26.40179,0,0,0,0,0,0,0,0,0,0,0,0,0,0,0,0,0,0,0,0,0,0,0,0,0,0,0,0,0,0,0,0,0,0,0,0,0,0,0,0,0,0,0,0,0,0,0,0,0,0,0,0,0,0,0,0,0,0,0,0,2,2,2,7,10,13,20,29,30,40,50,67,84,91,92,106,120,135,146,153,188,197,197,205,224,232,242,249,262,268,275,282,288,297,306,310,315,318,324,333,343,348,349,350,363,363,369,382,391,401,403,408,417,423,433,442,442,457,471,480,490,495,505,506,521,528
366,Medford-Grants Pass, OR,-122.97224,42.41276,0,0,0,0,0,0,0,0,0,0,0,0,0,0,0,0,0,0,0,0,0,0,0,0,0,0,0,0,0,0,0,0,0,0,0,0,0,0,0,0,0,0,0,0,0,1,2,2,2,2,2,2,2,2,2,2,2,2,2,3,3,3,4,6,8,10,13,25,30,31,32,39,39,39,46,46,55,55,60,60,61,64,66,66,66,66,67,68,68,68,67,67,67,67,68,69,69,69,69,69,70,70,71,71,73,73,73,73,73,73,73,75,75,75,75,75,75,76,77,79,77,80,81,82,86,85
368,Memphis-Forrest City, TN-MS-AR,-89.98696,35.15555,0,0,0,0,0,0,0,0,0,0,0,0,0,0,0,0,0,0,0,0,0,0,0,0,0,0,0,0,0,0,0,0,0,0,0,0,0,0,0,0,0,0,0,0,0,0,1,1,1,1,2,2,2,2,2,3,6,12,10,59,99,131,180,230,283,331,394,503,537,600,695,856,880,949,1033,1080,1178,1265,1387,1497,1576,1670,1811,1879,1897,2086,2083,2296,2416,2517,2559,2569,2674,2746,2848,3068,3109,3172,3241,3332,3442,3525,3738,3818,3848,3979,4061,4118,4213,4460,4797,4921,4992,5078,5180,5287,5347,5488,5612,5640,5997,6163,6296,6425,6569,6671
370,Miami-Port St. Lucie-Fort Lauderdale, FL,-80.52089,25.97159,0,0,0,0,0,0,0,0,0,0,0,0,0,0,0,0,0,0,0,0,0,0,0,0,0,0,0,0,0,0,0,0,0,0,0,0,0,0,0,0,0,0,0,0,0,2,2,3,4,4,8,15,33,54,54,101,167,228,299,397,530,651,774,905,1332,1631,2191,2451,3311,4019,4130,5265,6009,6830,7273,7906,8690,9263,9820,10530,11125,12056,12771,13154,13697,14136,15092,15521,16005,16512,17068,17310,18121,18675,18838,19346,19715,20148,20329,20586,21190,21594,21853,22439,22762,23072,23532,23665,24133,24460,24675,25212,25414,25857,26341,26818,27275,27754,27950,28180,28880,29226,29572,29852,30294,30570
372,Midland-Odessa, TX,-102.30846,31.87373,0,0,0,0,0,0,0,0,0,0,0,0,0,0,0,0,0,0,0,0,0,0,0,0,0,0,0,0,0,0,0,0,0,0,0,0,0,0,0,0,0,0,0,0,0,0,0,0,0,0,0,0,0,0,0,0,0,0,1,1,1,1,3,4,7,8,13,16,21,27,28,29,45,45,51,52,59,62,72,72,73,77,77,79,83,87,98,102,102,103,126,128,131,138,139,140,145,152,155,159,159,162,165,175,177,179,187,197,199,199,203,210,215,220,222,232,237,237,240,249,256,256,256,271,273,278
376,Milwaukee-Racine-Waukesha, WI,-88.04886,42.97595,0,0,0,0,0,0,0,0,0,0,0,0,0,0,0,0,0,0,0,0,0,0,0,0,0,0,0,0,0,0,0,0,0,0,0,0,0,0,0,0,0,0,0,0,0,0,0,0,0,0,1,4,10,10,17,29,56,84,127,168,248,276,322,428,471,555,713,793,825,947,1042,1157,1349,1349,1559,1641,1731,1832,1949,2080,2177,2258,2304,2388,2493,2605,2706,2784,2886,2937,3001,3097,3204,3292,3447,3586,3647,3746,3878,4056,4227,4367,4513,4614,4755,4908,5077,5285,5484,5630,5745,5843,6029,6292,6571,6918,7153,7245,7367,7765,8055,8393,8732,9043,9253,9440
378,Minneapolis-St. Paul, MN-WI,-93.49185,45.04952,0,0,0,0,0,0,0,0,0,0,0,0,0,0,0,0,0,0,0,0,0,0,0,0,0,0,0,0,0,0,0,0,0,0,0,0,0,0,0,0,0,0,0,0,1,1,1,2,3,6,9,10,20,20,49,53,64,74,93,105,125,185,211,226,257,293,327,366,421,453,489,520,547,585,633,665,715,773,829,887,959,1099,1100,1122,1238,1239,1446,1539,1612,1685,1746,1832,1946,2060,2187,2272,2406,2612,2856,3156,3500,3894,4223,4620,5120,5773,6370,6979,7545,7947,8371,8951,9326,9723,10430,11050,11680,12259,12812,13370,13821,14470,15180,15829,16413,16968
380,Mobile-Daphne-Fairhope, AL,-88.15216,30.79508,0,0,0,0,0,0,0,0,0,0,0,0,0,0,0,0,0,0,0,0,0,0,0,0,0,0,0,0,0,0,0,0,0,0,0,0,0,0,0,0,0,0,0,0,0,0,0,0,0,0,0,0,0,1,1,1,1,2,6,5,5,6,11,15,25,30,41,59,66,74,79,94,136,148,159,186,250,300,376,428,486,537,552,608,651,691,738,761,789,813,854,906,971,1011,1011,1104,1137,1198,1241,1266,1309,1390,1423,1448,1496,1549,1603,1663,1719,1736,1752,1789,1833,1910,1957,1995,2015,2056,2074,2154,2202,2250,2310,2334,2372,2396
384,Monroe-Ruston, LA,-92.21222,32.57321,0,0,0,0,0,0,0,0,0,0,0,0,0,0,0,0,0,0,0,0,0,0,0,0,0,0,0,0,0,0,0,0,0,0,0,0,0,0,0,0,0,0,0,0,0,0,0,0,0,0,0,0,0,0,0,0,0,0,0,2,2,11,9,15,27,38,49,59,63,80,106,124,155,221,229,290,339,357,391,427,463,484,503,511,540,573,622,642,675,686,705,736,775,803,826,842,875,887,919,960,992,1028,1050,1077,1088,1108,1123,1133,1164,1175,1183,1201,1290,1305,1343,1371,1400,1413,1426,1441,1557,1571,1571,1576,1645,1677
388,Montgomery-Selma-Alexander City, AL,-86.27822,32.39225,0,0,0,0,0,0,0,0,0,0,0,0,0,0,0,0,0,0,0,0,0,0,0,0,0,0,0,0,0,0,0,0,0,0,0,0,0,0,0,0,0,0,0,0,0,0,0,0,0,0,0,1,2,2,3,4,6,8,8,9,9,11,20,32,42,45,46,54,55,68,77,100,124,129,147,153,165,172,203,224,247,315,337,404,429,500,513,548,585,601,661,687,715,742,742,779,791,824,850,889,909,956,1015,1070,1112,1149,1216,1259,1324,1393,1464,1529,1566,1654,1712,1778,1791,1864,1944,2095,2153,2261,2348,2420,2545,2736
390,Morgantown-Fairmont, WV,-80.05677,39.58234,0,0,0,0,0,0,0,0,0,0,0,0,0,0,0,0,0,0,0,0,0,0,0,0,0,0,0,0,0,0,0,0,0,0,0,0,0,0,0,0,0,0,0,0,0,0,0,0,0,0,0,0,0,0,0,0,0,0,1,1,2,2,5,17,21,27,27,35,38,39,43,48,50,58,68,74,91,104,113,116,116,119,123,125,130,130,131,133,139,144,143,145,145,153,153,159,160,161,161,160,161,164,164,166,167,167,171,171,171,174,173,174,174,175,175,177,180,179,179,181,181,182,182,189,192,192
393,Moses Lake-Othello, WA,-119.25598,47.15856,0,0,0,0,0,0,0,0,0,0,0,0,0,0,0,0,0,0,0,0,0,0,0,0,0,0,0,0,0,0,0,0,0,0,0,0,0,0,0,0,0,0,0,1,1,1,1,1,1,1,1,1,2,2,3,7,8,8,8,11,18,24,24,28,36,42,49,55,66,76,77,93,95,97,103,114,115,123,125,131,140,150,157,161,161,169,173,180,184,184,186,191,191,194,196,196,198,201,202,206,210,217,218,228,228,228,228,229,230,230,232,233,235,235,235,235,236,237,236,238,238,239,239,243,243,243
394,Mount Pleasant-Alma, MI,-84.72835,43.47023,0,0,0,0,0,0,0,0,0,0,0,0,0,0,0,0,0,0,0,0,0,0,0,0,0,0,0,0,0,0,0,0,0,0,0,0,0,0,0,0,0,0,0,0,0,0,0,0,0,0,0,0,0,0,0,0,0,0,0,0,0,0,2,2,3,5,6,7,8,9,10,13,14,14,16,21,28,27,34,43,45,46,48,49,50,52,53,58,60,60,61,62,62,63,63,63,67,69,73,74,81,84,87,86,87,87,88,88,90,93,95,94,95,97,97,104,104,111,112,121,122,130,137,143,145,145
396,Myrtle Beach-Conway, SC-NC,-78.93046,33.87739,0,0,0,0,0,0,0,0,0,0,0,0,0,0,0,0,0,0,0,0,0,0,0,0,0,0,0,0,0,0,0,0,0,0,0,0,0,0,0,0,0,0,0,0,0,0,0,0,0,0,0,0,1,1,4,5,6,7,12,13,17,26,31,32,33,38,46,53,57,66,72,88,90,104,106,123,139,139,160,182,198,199,213,219,218,225,237,246,254,255,257,263,271,274,279,282,288,294,294,301,309,311,315,323,332,336,342,350,356,362,368,373,375,380,385,400,405,409,413,429,448,481,501,511,520,529
400,Nashville-Davidson--Murfreesboro, TN,-86.61683,36.16851,0,0,0,0,0,0,0,0,0,0,0,0,0,0,0,0,0,0,0,0,0,0,0,0,0,0,0,0,0,0,0,0,0,0,0,0,0,0,0,0,0,0,0,1,1,1,2,2,2,7,14,20,25,25,44,64,87,110,153,214,260,287,399,423,490,570,676,723,859,1051,1256,1545,1524,1645,1779,1846,2010,2125,2229,2343,2480,2753,2649,2709,2709,2811,2876,3114,3377,3465,3574,3574,3910,4047,4253,4454,4618,4691,4874,5089,6103,6639,6862,7021,7095,7252,7309,7516,7656,7722,7825,8024,8128,8299,8400,8557,8585,8866,9056,9056,9253,9440,9587,9705,9917,10096
404,New Bern-Morehead City, NC,-77.02371,35.07908,0,0,0,0,0,0,0,0,0,0,0,0,0,0,0,0,0,0,0,0,0,0,0,0,0,0,0,0,0,0,0,0,0,0,0,0,0,0,0,0,0,0,0,0,0,0,0,0,0,0,0,0,1,1,1,1,1,2,3,7,7,7,8,8,8,9,11,12,17,19,22,26,32,33,34,46,48,44,48,50,56,59,62,64,68,69,70,72,73,75,75,81,82,85,85,87,86,86,86,89,93,96,97,99,99,100,102,105,110,112,115,120,134,144,146,149,190,197,197,203,203,240,251,263,266,266
406,New Orleans-Metairie-Hammond, LA-MS,-90.05077,30.00804,0,0,0,0,0,0,0,0,0,0,0,0,0,0,0,0,0,0,0,0,0,0,0,0,0,0,0,0,0,0,0,0,0,0,0,0,0,0,0,0,0,0,0,0,0,0,0,0,0,5,17,28,70,84,107,186,246,324,472,651,687,945,1112,1365,1703,2013,2413,2506,2822,3690,4504,6666,7446,8820,9109,10247,11263,11698,12458,12987,13429,13679,13898,14199,14436,14696,14943,15136,15278,15731,15889,16043,16256,16401,16492,16632,16738,16821,16969,17072,17322,17499,17556,17659,17823,18004,18094,18151,18329,18378,18469,18562,18687,18798,18893,18997,19107,19158,19277,19355,19488,19606,19606,19669,19864,19940
408,New York-Newark, NY-NJ-CT-PA,-73.89140,40.84089,0,0,0,0,0,0,0,0,0,0,0,0,0,0,0,0,0,0,0,0,0,0,0,0,0,0,0,0,0,0,0,0,0,0,0,0,0,0,0,0,1,2,11,25,33,78,109,145,162,243,352,471,657,687,1126,1804,3364,6259,8629,12650,17196,22920,28389,34067,42840,51297,60459,69487,78962,90729,101243,112552,127763,143467,155974,169016,181844,196286,211591,226031,238183,249306,259221,270047,284215,298064,308577,318385,327637,336992,343037,354421,363619,374291,387108,395877,401536,406758,413420,420395,426690,433288,438896,442691,446973,450494,456258,460599,464342,467716,470453,472480,474985,478152,482204,485112,488266,491002,493141,495733,498118,500222,502142,504227,506078,507716
412,North Port-Sarasota, FL,-82.21490,27.26116,0,0,0,0,0,0,0,0,0,0,0,0,0,0,0,0,0,0,0,0,0,0,0,0,0,0,0,0,0,0,0,0,0,0,0,0,0,0,0,0,0,0,0,0,0,0,1,3,3,3,3,5,6,6,6,10,14,16,20,29,31,40,46,53,68,79,97,106,125,160,171,245,280,315,335,364,417,445,463,511,549,595,623,647,674,718,754,802,863,887,907,916,985,1028,1041,1056,1092,1142,1156,1197,1231,1254,1277,1317,1388,1463,1495,1512,1538,1578,1601,1629,1648,1715,1750,1763,1803,1842,1882,1909,1987,2020,2063,2099,2122,2135
416,Oklahoma City-Shawnee, OK,-97.42534,35.42012,0,0,0,0,0,0,0,0,0,0,0,0,0,0,0,0,0,0,0,0,0,0,0,0,0,0,0,0,0,0,0,0,0,0,0,0,0,0,0,0,0,0,0,0,0,0,0,0,0,0,0,0,1,1,4,9,9,32,35,37,44,50,70,93,128,156,176,195,224,258,330,399,434,498,513,542,606,629,731,773,800,828,852,888,918,950,950,950,1021,1073,1113,1168,1226,1274,1310,1317,1328,1372,1396,1452,1526,1543,1568,1578,1604,1628,1662,1681,1711,1731,1741,1794,1810,1821,1846,1894,1902,1905,1931,1941,1974,2045,2065,2089,2100,2113
420,Omaha-Council Bluffs-Fremont, NE-IA,-96.16072,41.30094,0,0,0,0,0,0,0,0,0,0,0,0,0,0,0,0,0,0,0,0,0,0,0,0,0,0,0,0,0,0,0,0,0,0,0,0,0,0,0,0,0,0,0,0,1,1,1,3,4,5,10,15,19,18,19,23,23,27,27,31,45,45,58,62,66,73,84,90,115,140,160,179,193,207,223,238,241,275,293,312,329,342,348,366,368,375,386,387,413,429,434,450,497,546,576,628,697,705,830,920,1028,1132,1231,1329,1461,1543,1691,1841,2033,2088,2176,2255,2434,2672,2861,3111,3196,3327,3496,3636,3793,3921,4133,4230,4364,4546
422,Orlando-Lakeland-Deltona, FL,-81.40090,28.48737,0,0,0,0,0,0,0,0,0,0,0,0,0,0,0,0,0,0,0,0,0,0,0,0,0,0,0,0,0,0,0,0,0,0,0,0,0,0,0,0,0,0,0,0,0,0,1,1,2,2,3,4,7,9,9,27,37,58,70,91,113,144,158,211,291,392,492,585,700,874,911,1235,1402,1525,1650,1722,1815,1923,2048,2154,2213,2290,2433,2497,2587,2720,2825,2926,3019,3072,3160,3201,3356,3421,3466,3510,3593,3661,3691,3736,3890,3966,4005,4041,4077,4133,4211,4238,4306,4345,4376,4440,4491,4552,4649,4685,4738,4800,4869,4921,5007,5068,5138,5237,5291,5342
424,Paducah-Mayfield, KY-IL,-88.67406,36.87115,0,0,0,0,0,0,0,0,0,0,0,0,0,0,0,0,0,0,0,0,0,0,0,0,0,0,0,0,0,0,0,0,0,0,0,0,0,0,0,0,0,0,0,0,0,0,0,0,0,0,0,0,0,0,0,0,0,0,0,0,0,0,1,2,2,2,2,3,5,8,8,9,9,13,17,17,17,17,24,24,24,33,33,41,47,61,63,77,88,100,106,122,122,129,152,169,178,187,189,203,214,214,217,221,224,225,232,234,237,237,241,243,243,251,255,256,256,262,262,259,260,261,268,268,268,271
425,Parkersburg-Marietta-Vienna, WV-OH,-81.49594,39.37362,0,0,0,0,0,0,0,0,0,0,0,0,0,0,0,0,0,0,0,0,0,0,0,0,0,0,0,0,0,0,0,0,0,0,0,0,0,0,0,0,0,0,0,0,0,0,0,0,0,0,0,0,0,0,0,0,0,0,0,0,1,1,1,2,2,4,4,5,6,6,6,8,10,14,19,27,41,45,49,55,56,59,61,67,71,80,86,88,98,98,102,108,113,119,132,133,132,137,137,139,142,144,146,147,150,151,156,157,159,160,160,161,162,163,164,166,166,167,167,168,168,168,168,172,172,172
426,Pensacola-Ferry Pass, FL-AL,-87.29230,30.69974,0,0,0,0,0,0,0,0,0,0,0,0,0,0,0,0,0,0,0,0,0,0,0,0,0,0,0,0,0,0,0,0,0,0,0,0,0,0,0,0,0,0,0,1,1,1,1,1,1,1,1,1,1,1,2,2,1,3,4,4,8,13,14,21,28,33,43,51,73,139,139,150,163,170,183,197,236,252,260,305,320,341,362,371,384,406,434,449,461,471,496,580,582,599,611,631,646,663,676,688,719,725,781,785,787,792,809,815,842,847,854,876,882,890,903,903,911,931,944,959,971,981,996,1006,1019,1023
428,Philadelphia-Reading-Camden, PA-NJ-DE-MD,-75.22480,39.94008,0,0,0,0,0,0,0,0,0,0,0,0,0,0,0,0,0,0,0,0,0,0,0,0,0,0,0,0,0,0,0,0,0,0,0,0,0,0,0,0,0,0,0,0,1,1,5,6,13,17,21,39,46,46,70,101,150,196,274,335,428,605,828,1071,1473,1903,2268,2678,3108,3642,4451,5305,6215,7487,8320,9588,10825,12186,13625,15043,16549,17667,18916,19850,20913,22263,23667,25113,26395,27445,28758,29664,32032,33692,34485,36079,37294,39131,40266,41812,43445,44371,45358,47056,48313,49344,50668,52237,53696,54915,55764,56655,57397,58431,59489,60575,61070,62240,63026,63992,65078,66203,66832,67493,68087,68969
429,Phoenix-Mesa, AZ,-112.39236,33.31280,0,0,0,0,1,1,1,1,1,1,1,1,1,1,1,1,1,1,1,1,1,1,1,1,1,1,1,1,1,1,1,1,1,1,1,1,1,1,1,1,1,1,1,1,2,4,4,4,5,8,8,8,9,9,13,14,19,32,44,63,97,156,221,274,334,435,496,597,755,851,937,1032,1128,1263,1432,1542,1618,1686,1829,1882,2040,2126,2191,2234,2331,2466,2621,2733,2843,2900,3015,3139,3285,3444,3577,3712,3827,3954,4122,4382,4586,4870,5055,5233,5421,5650,5743,6110,6383,6446,6627,6874,7003,7270,7513,7796,7955,8064,8224,8390,8589,8723,8951,9056,9167,9238
430,Pittsburgh-New Castle-Weirton, PA-OH-WV,-79.96736,40.50500,0,0,0,0,0,0,0,0,0,0,0,0,0,0,0,0,0,0,0,0,0,0,0,0,0,0,0,0,0,0,0,0,0,0,0,0,0,0,0,0,0,0,0,0,0,0,0,0,0,0,0,1,3,3,7,13,17,25,38,44,56,70,90,139,214,259,374,442,500,583,636,727,844,972,1068,1143,1269,1336,1405,1490,1586,1630,1682,1707,1739,1785,1842,2051,2102,2127,2164,2223,2308,2379,2478,2520,2568,2596,2651,2693,2751,2781,2808,2855,2888,2924,2978,3008,3055,3085,3096,3120,3158,3182,3226,3244,3260,3323,3344,3383,3420,3461,3488,3526,3570,3587
438,Portland-Lewiston-South Portland, ME,-70.41086,43.81090,0,0,0,0,0,0,0,0,0,0,0,0,0,0,0,0,0,0,0,0,0,0,0,0,0,0,0,0,0,0,0,0,0,0,0,0,0,0,0,0,0,0,0,0,0,0,0,0,0,0,1,1,1,2,14,21,29,30,43,53,67,84,96,118,126,135,170,204,222,246,246,300,342,359,372,393,404,419,439,452,469,479,493,527,541,554,577,594,606,612,622,633,658,672,672,710,715,726,737,758,783,810,839,856,878,900,968,1005,1043,1068,1089,1103,1139,1189,1218,1255,1290,1320,1348,1420,1469,1536,1601,1637,1656,1690
440,Portland-Vancouver-Salem, OR-WA,-122.63912,45.33759,0,0,0,0,0,0,0,0,0,0,0,0,0,0,0,0,0,0,0,0,0,0,0,0,0,0,0,0,0,0,0,0,0,0,0,0,0,0,1,1,2,2,2,2,2,4,10,10,10,13,18,26,30,30,34,59,66,79,103,127,151,183,200,253,327,442,509,565,611,708,761,835,901,901,1049,1080,1145,1192,1326,1326,1382,1514,1584,1636,1671,1735,1790,1844,1907,1972,2024,2084,2118,2168,2238,2288,2337,2367,2421,2480,2541,2587,2621,2701,2765,2834,2899,2968,3048,3118,3172,3245,3312,3376,3427,3495,3505,3553,3585,3642,3657,3699,3713,3758,3778,3805
444,Pueblo-Caon City, CO,-104.59587,38.20049,0,0,0,0,0,0,0,0,0,0,0,0,0,0,0,0,0,0,0,0,0,0,0,0,0,0,0,0,0,0,0,0,0,0,0,0,0,0,0,0,0,0,0,0,0,0,0,0,0,0,0,1,1,1,1,1,1,2,3,3,3,3,4,4,4,7,8,11,18,23,24,28,33,39,43,45,48,49,53,55,59,65,72,72,77,81,87,93,97,99,103,126,127,136,141,153,156,158,158,161,168,172,180,180,180,183,186,193,199,205,208,211,211,211,220,227,229,242,244,245,256,259,286,289,289,290
446,Pullman-Moscow, WA-ID,-117.27680,46.87455,0,0,0,0,0,0,0,0,0,0,0,0,0,0,0,0,0,0,0,0,0,0,0,0,0,0,0,0,0,0,0,0,0,0,0,0,0,0,0,0,0,0,0,0,0,0,0,0,0,0,0,0,0,0,0,0,0,0,0,0,1,2,2,2,3,5,6,6,8,8,11,12,12,12,12,13,14,14,14,15,15,15,15,15,15,16,17,18,18,16,17,17,17,18,18,18,18,19,19,19,19,19,19,19,19,19,19,20,20,20,20,20,21,22,22,22,22,22,22,22,22,23,23,23,23,23
448,Quincy-Hannibal, IL-MO,-91.30469,39.96221,0,0,0,0,0,0,0,0,0,0,0,0,0,0,0,0,0,0,0,0,0,0,0,0,0,0,0,0,0,0,0,0,0,0,0,0,0,0,0,0,0,0,0,0,0,0,0,0,0,0,0,0,0,0,0,0,0,0,1,1,1,1,1,2,2,2,2,3,3,3,3,3,3,4,4,9,10,2,23,25,26,26,27,28,28,30,31,32,35,35,34,35,40,43,43,44,45,52,52,52,52,52,52,52,51,52,52,53,53,53,53,54,54,54,56,56,56,56,56,57,59,58,58,58,58,59
450,Raleigh-Durham-Cary, NC,-78.77657,35.91625,0,0,0,0,0,0,0,0,0,0,0,0,0,0,0,0,0,0,0,0,0,0,0,0,0,0,0,0,0,0,0,0,0,0,0,0,0,0,0,0,0,1,1,1,2,2,2,2,7,7,10,11,15,18,19,37,54,65,85,87,110,111,156,183,236,271,292,326,342,405,440,514,566,622,663,739,823,884,940,1007,1112,1238,1274,1355,1434,1507,1552,1607,1657,1709,1735,1752,1870,1957,2025,2099,2355,2456,2533,2605,2684,2783,2832,2845,2956,3017,3120,3207,3260,3303,3331,3407,3476,3571,3661,3724,3786,3863,3894,4095,4147,4391,4507,4578,4705,4810
452,Rapid City-Spearfish, SD,-102.86630,44.05149,0,0,0,0,0,0,0,0,0,0,0,0,0,0,0,0,0,0,0,0,0,0,0,0,0,0,0,0,0,0,0,0,0,0,0,0,0,0,0,0,0,0,0,0,0,0,0,0,0,1,1,1,1,1,1,1,1,1,1,1,1,1,1,2,2,6,6,8,11,12,12,16,16,16,16,16,16,16,17,18,18,18,19,19,19,20,20,20,20,21,21,21,21,21,21,22,22,22,22,22,23,23,24,24,27,27,28,30,31,38,40,45,50,54,57,63,66,72,88,99,99,142,154,171,175,181
454,Redding-Red Bluff, CA,-122.05487,40.71482,0,0,0,0,0,0,0,0,0,0,0,0,0,0,0,0,0,0,0,0,0,0,0,0,0,0,0,0,0,0,0,0,0,0,0,0,0,0,0,0,0,0,0,0,0,0,0,1,1,1,1,1,1,1,1,1,1,1,1,1,1,2,2,3,3,3,3,4,4,6,7,7,11,13,18,21,22,24,25,25,25,25,25,26,26,26,27,27,27,27,27,27,29,31,31,31,31,31,32,32,32,32,32,32,32,32,32,32,32,32,33,33,33,34,34,35,36,36,36,36,36,37,39,39,39,39
456,Reno-Carson City-Fernley, NV,-119.65062,40.49420,0,0,0,0,0,0,0,0,0,0,0,0,0,0,0,0,0,0,0,0,0,0,0,0,0,0,0,0,0,0,0,0,0,0,0,0,0,0,0,0,0,0,0,0,1,1,2,2,2,2,2,2,4,4,10,13,13,15,16,24,27,28,48,56,63,73,86,118,122,133,155,175,198,265,284,285,330,351,353,393,421,448,503,575,597,598,625,645,696,723,723,773,804,804,866,886,888,924,938,965,1017,1051,1080,1092,1122,1131,1140,1176,1193,1216,1224,1243,1260,1288,1327,1333,1400,1411,1445,1548,1475,1517,1517,1547,1579,1635
458,Richmond-Connersville, IN,-85.09240,39.75254,0,0,0,0,0,0,0,0,0,0,0,0,0,0,0,0,0,0,0,0,0,0,0,0,0,0,0,0,0,0,0,0,0,0,0,0,0,0,0,0,0,0,0,0,0,0,0,0,0,0,0,0,0,0,0,0,1,2,2,2,2,2,2,3,4,4,5,6,9,11,13,14,19,20,24,26,31,34,35,35,37,37,39,39,40,41,43,44,49,50,50,52,52,54,56,56,58,59,64,62,63,65,67,69,71,77,83,85,88,89,91,96,95,98,100,101,103,103,104,106,114,115,116,132,134,139
462,Rochester-Austin, MN,-92.50153,43.92379,0,0,0,0,0,0,0,0,0,0,0,0,0,0,0,0,0,0,0,0,0,0,0,0,0,0,0,0,0,0,0,0,0,0,0,0,0,0,0,0,0,0,0,0,0,0,0,0,0,1,1,1,1,1,3,5,6,7,12,17,23,28,31,36,51,56,63,75,84,88,99,106,116,130,138,139,148,155,163,178,186,200,200,205,211,211,234,239,257,260,261,268,278,285,305,306,313,318,323,334,340,355,366,381,389,400,417,437,454,465,471,476,488,509,534,558,574,595,623,639,653,711,756,777,828,856
464,Rochester-Batavia-Seneca Falls, NY,-77.69347,43.10530,0,0,0,0,0,0,0,0,0,0,0,0,0,0,0,0,0,0,0,0,0,0,0,0,0,0,0,0,0,0,0,0,0,0,0,0,0,0,0,0,0,0,0,0,0,0,0,0,0,0,2,1,2,2,12,15,21,32,39,56,78,91,122,139,176,203,250,271,307,323,436,518,570,628,679,710,747,834,903,969,1004,1044,1073,1124,1161,1217,1268,1318,1381,1407,1434,1483,1533,1585,1758,1804,1831,1880,1923,1970,2018,2083,2135,2172,2207,2251,2303,2374,2419,2477,2513,2559,2642,2734,2814,2943,3031,3081,3164,3290,3371,3451,3542,3588,3631,3678
466,Rockford-Freeport-Rochelle, IL,-89.15778,42.31528,0,0,0,0,0,0,0,0,0,0,0,0,0,0,0,0,0,0,0,0,0,0,0,0,0,0,0,0,0,0,0,0,0,0,0,0,0,0,0,0,0,0,0,0,0,0,0,0,0,0,0,0,0,0,0,1,1,1,1,4,5,6,6,8,8,10,11,15,16,18,22,28,32,43,53,65,81,88,94,108,111,127,146,149,165,177,216,261,268,298,314,363,390,427,474,497,543,578,621,694,765,825,909,985,998,1060,1144,1232,1298,1356,1386,1673,1739,1887,1964,2023,2100,2172,2211,2274,2369,2506,2588,2695,2732,2787
468,Rocky Mount-Wilson-Roanoke Rapids, NC,-77.75132,35.98301,0,0,0,0,0,0,0,0,0,0,0,0,0,0,0,0,0,0,0,0,0,0,0,0,0,0,0,0,0,0,0,0,0,0,0,0,0,0,0,0,0,0,0,0,0,0,0,0,0,0,0,0,0,0,1,1,1,1,2,2,4,6,9,11,14,15,16,42,48,61,65,69,84,99,106,111,137,143,158,171,194,202,216,234,256,270,296,313,335,340,353,375,381,406,441,452,452,451,468,495,503,521,530,549,570,592,615,638,659,697,711,720,736,763,771,781,793,816,816,844,854,901,951,968,981,994
472,Sacramento-Roseville, CA,-121.30110,38.59350,0,0,0,0,0,0,0,0,0,0,0,0,0,0,0,0,0,0,0,0,0,0,0,0,0,0,0,0,0,0,1,1,1,1,1,1,2,2,2,2,3,3,4,4,8,8,8,10,18,19,25,22,38,36,41,50,54,60,68,69,74,113,124,160,169,229,251,266,332,356,388,498,591,602,660,686,762,847,862,963,969,1037,1077,1151,1192,1233,1260,1283,1307,1323,1347,1369,1410,1454,1454,1479,1489,1488,1508,1521,1547,1573,1585,1598,1610,1622,1635,1643,1652,1656,1669,1686,1689,1713,1734,1746,1764,1778,1788,1792,1803,1818,1847,1850,1868,1885
474,Saginaw-Midland-Bay City, MI,-84.05734,43.43038,0,0,0,0,0,0,0,0,0,0,0,0,0,0,0,0,0,0,0,0,0,0,0,0,0,0,0,0,0,0,0,0,0,0,0,0,0,0,0,0,0,0,0,0,0,0,0,0,0,0,0,0,1,1,1,1,1,2,4,5,8,9,15,18,20,26,31,37,54,70,93,113,124,144,166,191,206,249,275,316,337,359,385,395,413,457,480,516,531,551,567,614,660,691,710,725,764,800,833,867,894,920,939,951,966,999,1014,1030,1035,1047,1079,1110,1130,1159,1174,1207,1224,1249,1266,1288,1304,1321,1337,1350,1362,1366
476,St. Louis-St. Charles-Farmington, MO-IL,-90.32970,38.62696,0,0,0,0,0,0,0,0,0,0,0,0,0,0,0,0,0,0,0,0,0,0,0,0,0,0,0,0,0,0,0,0,0,0,0,0,0,0,0,0,0,0,0,0,0,0,1,1,1,1,2,2,4,4,6,8,13,18,23,34,43,99,150,211,299,407,510,566,620,846,1062,1252,1262,1599,1642,1920,2275,2399,2639,2993,3164,3335,3523,3714,3770,4031,4180,4350,4505,4642,4780,4978,5167,5455,5597,5778,5959,6123,6302,6451,6597,6796,7047,7211,7337,7491,7715,7848,8001,8137,8226,8307,8407,8576,8667,8810,8926,9019,9132,9212,9340,9404,9484,9565,9847,9906
480,Salisbury-Cambridge, MD-DE,-75.44785,38.58499,0,0,0,0,0,0,0,0,0,0,0,0,0,0,0,0,0,0,0,0,0,0,0,0,0,0,0,0,0,0,0,0,0,0,0,0,0,0,0,0,0,0,0,0,0,0,0,0,0,0,0,0,0,0,0,1,1,3,9,12,17,25,30,33,35,45,68,75,91,99,117,122,134,145,176,185,244,317,342,391,468,539,648,742,797,834,971,1085,1095,1289,1384,1573,1662,1705,1830,2181,2329,2580,2646,2760,2866,2974,3113,3167,3214,3485,3596,3714,3783,3805,4042,4166,4352,4539,4634,4761,4862,5045,5091,5163,5226,5279,5284,5352,5395,5437
482,Salt Lake City-Provo-Orem, UT,-111.83472,40.59107,0,0,0,0,0,0,0,0,0,0,0,0,0,0,0,0,0,0,0,0,0,0,0,0,0,0,0,0,0,0,0,0,0,0,0,0,0,0,0,0,0,0,0,0,0,1,1,1,2,3,3,7,8,18,28,39,47,60,93,116,160,236,277,321,374,449,569,681,760,832,832,1022,1188,1363,1529,1597,1656,1756,1762,1996,2093,2185,2242,2293,2421,2556,2702,2822,2950,3080,3159,3305,3462,3626,3784,3950,4056,4163,4312,4480,4631,4753,4915,5032,5158,5289,5407,5592,5747,5883,5985,6056,6230,6350,6496,6620,6758,6854,6970,7137,7283,7449,7636,7750,7855,7944
484,San Antonio-New Braunfels-Pearsall, TX,-98.50747,29.45001,0,0,0,0,0,0,0,0,0,0,0,0,0,0,0,0,0,0,0,0,0,0,0,0,0,0,0,0,0,0,0,0,0,0,0,0,0,0,0,0,0,0,0,0,0,0,0,0,0,0,0,1,2,2,3,4,12,30,33,44,53,66,82,85,108,140,155,173,195,209,251,282,314,409,455,482,548,608,668,736,792,856,906,930,958,1041,1077,1118,1159,1183,1202,1261,1354,1522,1531,1537,1538,1483,1534,1608,1610,1722,1832,1833,1903,1932,2038,2089,2099,2142,2214,2226,2277,2315,2324,2476,2478,2486,2651,2658,2718,2767,2788,2828,2828,2859
488,San Jose-San Francisco-Oakland, CA,-121.97160,37.64219,0,0,0,0,0,0,0,0,0,1,1,1,4,4,4,4,4,4,4,4,4,4,4,4,4,4,4,4,4,4,4,4,4,4,4,4,4,4,5,5,13,17,18,29,31,51,63,65,89,110,133,183,227,224,315,382,441,495,576,705,750,925,1099,1271,1523,1764,1893,2082,2421,2591,2859,3108,3371,3635,3994,4119,4362,4657,4798,5119,5328,5502,5845,5973,6356,6542,6790,7064,7181,7456,7612,7730,8027,8245,8378,8566,8737,8955,9139,9318,9511,9709,9897,10026,10316,10528,10717,10906,11120,11284,11439,11614,11743,11934,12173,12355,12554,12783,13064,13198,13380,13769,14087,14305,14471,14787
496,Savannah-Hinesville-Statesboro, GA,-81.27841,32.03501,0,0,0,0,0,0,0,0,0,0,0,0,0,0,0,0,0,0,0,0,0,0,0,0,0,0,0,0,0,0,0,0,0,0,0,0,0,0,0,0,0,0,0,0,0,0,0,0,0,0,0,0,0,0,0,0,0,0,3,5,6,6,12,13,17,20,28,31,33,45,57,71,89,101,125,162,186,200,208,218,227,236,247,261,271,272,295,300,306,321,324,340,355,368,370,370,375,387,395,405,415,417,422,435,459,476,480,490,498,506,515,534,545,552,562,570,569,585,604,617,658,696,711,723,729,769
497,Scottsboro-Fort Payne, AL,-85.85246,34.53523,0,0,0,0,0,0,0,0,0,0,0,0,0,0,0,0,0,0,0,0,0,0,0,0,0,0,0,0,0,0,0,0,0,0,0,0,0,0,0,0,0,0,0,0,0,0,0,0,0,0,0,0,0,0,0,0,0,0,1,1,1,1,2,2,5,5,9,9,9,12,13,17,22,25,28,31,32,33,37,39,43,50,53,58,60,64,66,78,80,85,92,100,104,106,106,115,119,122,124,126,125,127,129,140,152,162,180,195,201,207,218,227,239,245,251,255,255,260,258,272,275,278,283,290,297,306
500,Seattle-Tacoma, WA,-121.88023,47.58565,1,1,1,1,1,1,1,1,1,1,1,1,1,1,1,1,1,1,1,1,1,1,1,1,1,1,1,1,1,1,1,1,1,1,1,1,1,1,7,11,18,27,39,69,77,99,118,118,158,277,400,490,583,583,752,916,975,1171,1327,1550,1713,1905,2024,2272,2747,2926,3470,3672,3856,4300,4386,4942,5184,5493,5903,6155,6438,6718,7027,7370,7606,7818,7900,8074,8221,8381,8691,8737,9139,9211,9394,9525,9664,9823,10015,10172,10308,10435,10592,10765,10882,11049,11190,11340,11453,11615,11821,11897,12050,12159,12251,12360,12464,12589,12657,12800,12886,12953,13042,13099,13151,13216,13216,13394,13454,13481
508,Shreveport-Bossier City-Minden, LA,-93.81269,32.55810,0,0,0,0,0,0,0,0,0,0,0,0,0,0,0,0,0,0,0,0,0,0,0,0,0,0,0,0,0,0,0,0,0,0,0,0,0,0,0,0,0,0,0,0,0,0,0,0,0,0,1,1,2,2,4,5,6,9,20,23,23,54,61,131,166,199,264,309,318,352,429,484,541,837,909,983,1041,1104,1233,1289,1326,1390,1411,1499,1532,1585,1669,1702,1726,1745,1798,1828,1901,1925,1963,1986,2014,2048,2086,2101,2152,2183,2195,2223,2236,2271,2301,2325,2363,2373,2392,2413,2457,2480,2519,2537,2556,2585,2605,2639,3007,3035,3035,3067,3119,3123
515,South Bend-Elkhart-Mishawaka, IN-MI,-86.14599,41.66446,0,0,0,0,0,0,0,0,0,0,0,0,0,0,0,0,0,0,0,0,0,0,0,0,0,0,0,0,0,0,0,0,0,0,0,0,0,0,0,0,0,0,0,0,0,0,0,0,0,1,1,1,1,1,1,1,1,3,6,9,15,26,30,34,41,60,71,83,91,116,132,147,171,197,220,237,269,296,323,355,394,427,434,494,556,622,698,755,779,808,859,888,932,1011,1083,1118,1135,1188,1233,1262,1294,1333,1368,1394,1448,1524,1577,1668,1717,1800,1847,1909,1960,2091,2159,2235,2319,2359,2450,2559,2670,2769,2862,2952,2998,3106
517,Spencer-Spirit Lake, IA,-95.15099,43.22240,0,0,0,0,0,0,0,0,0,0,0,0,0,0,0,0,0,0,0,0,0,0,0,0,0,0,0,0,0,0,0,0,0,0,0,0,0,0,0,0,0,0,0,0,0,0,0,0,0,0,0,0,0,0,0,0,0,0,0,0,0,0,0,0,0,1,1,1,1,1,2,3,3,3,3,3,3,3,3,3,3,3,3,3,3,3,3,3,4,4,5,6,6,7,8,8,8,9,9,10,10,10,11,12,13,13,14,15,15,15,15,15,15,15,16,16,15,15,16,17,17,17,18,18,19,19
518,Spokane-Spokane Valley-Coeur d'Alene, WA-ID,-117.33157,47.64068,0,0,0,0,0,0,0,0,0,0,0,0,0,0,0,0,0,0,0,0,0,0,0,0,0,0,0,0,0,0,0,0,0,0,0,0,0,0,0,0,0,0,0,0,0,0,0,0,0,0,0,0,3,3,3,4,5,10,14,20,24,27,38,42,78,95,122,137,165,169,192,218,236,251,264,269,270,286,294,299,301,325,328,328,330,341,354,360,365,372,375,378,388,398,414,417,417,420,423,427,438,437,440,443,444,450,451,452,453,454,457,458,460,466,466,470,474,478,487,491,497,513,513,553,570,573
522,Springfield-Jacksonville-Lincoln, IL,-89.67149,39.75793,0,0,0,0,0,0,0,0,0,0,0,0,0,0,0,0,0,0,0,0,0,0,0,0,0,0,0,0,0,0,0,0,0,0,0,0,0,0,0,0,0,0,0,0,0,0,0,0,0,0,0,0,0,2,2,4,3,4,4,5,5,5,6,7,7,9,10,19,29,32,36,40,44,50,57,63,67,69,76,79,82,82,84,91,90,96,101,105,106,111,114,117,124,131,146,156,167,222,235,245,264,278,282,285,292,308,315,336,341,343,347,364,370,380,391,397,401,404,405,412,417,418,422,423,425,426
524,State College-DuBois, PA,-77.95279,40.93669,0,0,0,0,0,0,0,0,0,0,0,0,0,0,0,0,0,0,0,0,0,0,0,0,0,0,0,0,0,0,0,0,0,0,0,0,0,0,0,0,0,0,0,0,0,0,0,0,0,0,0,0,0,0,0,0,0,0,1,1,1,3,8,10,11,13,17,24,28,30,31,32,37,46,50,51,62,64,66,69,78,79,79,79,81,82,82,82,84,84,88,88,87,88,92,92,98,104,109,112,112,112,123,126,127,134,138,141,141,144,144,152,157,161,162,162,164,166,165,166,169,171,177,180,181,185
525,Steamboat Springs-Craig, CO,-107.11958,40.49998,0,0,0,0,0,0,0,0,0,0,0,0,0,0,0,0,0,0,0,0,0,0,0,0,0,0,0,0,0,0,0,0,0,0,0,0,0,0,0,0,0,0,0,0,0,0,0,0,0,0,0,1,1,1,2,2,2,2,2,2,3,3,4,6,9,12,16,18,20,21,23,27,31,32,32,32,35,35,35,38,38,39,44,44,44,46,49,53,53,54,57,58,58,58,58,60,60,61,60,62,62,62,62,62,64,64,64,64,64,64,64,65,65,65,65,65,65,66,65,65,65,65,65,65,65,66
532,Syracuse-Auburn, NY,-76.14471,43.00892,0,0,0,0,0,0,0,0,0,0,0,0,0,0,0,0,0,0,0,0,0,0,0,0,0,0,0,0,0,0,0,0,0,0,0,0,0,0,0,0,0,0,0,0,0,0,0,0,0,0,0,0,0,0,1,2,6,7,13,34,45,56,68,92,126,146,185,235,288,317,363,396,433,462,493,514,537,562,576,621,623,672,703,722,751,769,796,796,837,851,851,876,792,835,889,923,959,979,1019,1074,1114,1169,1220,1306,1344,1408,1483,1542,1596,1649,1673,1695,1784,1816,1837,1873,1906,1927,2082,2168,2229,2294,2380,2431,2465,2497
534,Toledo-Findlay-Tiffin, OH,-83.62147,41.56989,0,0,0,0,0,0,0,0,0,0,0,0,0,0,0,0,0,0,0,0,0,0,0,0,0,0,0,0,0,0,0,0,0,0,0,0,0,0,0,0,0,0,0,0,0,0,0,0,0,0,0,0,0,1,1,1,1,1,2,4,9,14,18,29,45,62,86,116,140,164,207,249,282,324,363,390,421,451,488,538,596,613,626,662,727,788,843,903,976,1012,1050,1084,1156,1226,1287,1360,1393,1439,1494,1553,1614,1662,1713,1777,1848,1904,1963,2060,2109,2160,2214,2252,2278,2315,2364,2401,2424,2462,2478,2499,2542,2559,2608,2638,2664,2693
536,Tucson-Nogales, AZ,-111.71120,32.04984,0,0,0,0,0,0,0,0,0,0,0,0,0,0,0,0,0,0,0,0,0,0,0,0,0,0,0,0,0,0,0,0,0,0,0,0,0,0,0,0,0,0,0,0,0,0,0,0,1,1,1,1,2,2,4,4,5,7,9,13,18,25,43,50,77,104,122,155,189,204,220,240,283,330,376,419,420,470,519,550,599,630,678,695,712,774,833,872,932,961,986,1001,1054,1090,1120,1166,1194,1219,1246,1274,1300,1334,1360,1380,1414,1462,1503,1558,1594,1629,1647,1674,1711,1758,1819,1853,1889,1903,1985,2005,2067,2105,2145,2196,2232,2262
538,Tulsa-Muskogee-Bartlesville, OK,-95.93161,36.22572,0,0,0,0,0,0,0,0,0,0,0,0,0,0,0,0,0,0,0,0,0,0,0,0,0,0,0,0,0,0,0,0,0,0,0,0,0,0,0,0,0,0,0,0,0,1,1,1,2,2,2,2,2,2,3,4,4,7,7,8,12,17,19,47,81,106,124,139,148,180,235,300,342,418,459,481,524,549,585,617,656,695,724,787,797,823,823,823,898,918,979,997,1027,1055,1075,1100,1102,1135,1161,1225,1255,1290,1317,1334,1347,1357,1397,1411,1430,1439,1453,1464,1484,1495,1506,1536,1545,1552,1569,1581,1633,1681,1705,1722,1734,1748
539,Tupelo-Corinth, MS,-88.58741,34.35839,0,0,0,0,0,0,0,0,0,0,0,0,0,0,0,0,0,0,0,0,0,0,0,0,0,0,0,0,0,0,0,0,0,0,0,0,0,0,0,0,0,0,0,0,0,0,0,0,0,0,0,0,0,0,0,0,0,0,1,1,10,12,17,20,22,23,27,32,31,39,42,44,55,58,60,62,71,74,77,82,84,87,91,91,94,99,102,115,126,139,142,144,151,158,161,166,177,181,181,186,190,195,198,200,204,203,204,209,215,215,218,221,223,229,233,237,244,245,248,250,252,258,261,268,272,279
540,Tyler-Jacksonville, TX,-95.25318,32.28068,0,0,0,0,0,0,0,0,0,0,0,0,0,0,0,0,0,0,0,0,0,0,0,0,0,0,0,0,0,0,0,0,0,0,0,0,0,0,0,0,0,0,0,0,0,0,0,0,0,0,0,3,3,4,4,4,5,5,5,6,10,10,14,16,21,28,28,32,33,38,42,47,59,63,63,68,81,85,88,94,99,102,102,109,112,117,122,126,131,131,134,134,143,143,143,144,146,153,153,156,160,163,163,163,174,176,185,190,190,194,194,200,212,213,220,223,223,223,228,230,239,239,239,240,240,240
544,Victoria-Port Lavaca, TX,-96.91937,28.73265,0,0,0,0,0,0,0,0,0,0,0,0,0,0,0,0,0,0,0,0,0,0,0,0,0,0,0,0,0,0,0,0,0,0,0,0,0,0,0,0,0,0,0,0,0,0,0,0,0,0,0,0,0,0,0,0,0,0,0,0,0,0,3,5,5,6,6,8,12,22,23,29,36,41,44,50,65,74,82,91,94,96,100,110,113,113,115,115,119,119,122,124,134,134,146,150,157,164,164,169,174,177,178,179,184,187,187,189,191,193,193,193,193,197,197,197,197,199,200,201,201,201,201,201,201,201
545,Virginia Beach-Norfolk, VA-NC,-76.39561,36.83427,0,0,0,0,0,0,0,0,0,0,0,0,0,0,0,0,0,0,0,0,0,0,0,0,0,0,0,0,0,0,0,0,0,0,0,0,0,0,0,0,0,0,0,0,0,0,0,0,2,2,0,7,8,8,12,18,20,24,36,42,69,73,83,100,120,143,175,217,232,303,361,419,489,611,650,684,751,814,850,896,945,977,1033,1099,1120,1155,1190,1241,1288,1320,1382,1455,1565,1598,1650,1738,1773,1839,1874,1961,2025,2073,2132,2200,2257,2294,2333,2420,2496,2557,2609,2641,2683,2739,2830,2855,2894,2952,2987,3014,3073,3129,3188,3233,3333,3405
548,Washington-Baltimore-Arlington, DC-MD-VA-WV-PA,-77.06828,38.99670,0,0,0,0,0,0,0,0,0,0,0,0,0,0,0,0,0,0,0,0,0,0,0,0,0,0,0,0,0,0,0,0,0,0,0,0,0,0,0,0,0,0,0,0,3,3,7,7,14,15,22,34,45,49,94,120,159,204,281,369,448,528,624,805,1041,1357,1688,2048,2353,2796,3317,3817,4471,5106,5824,6506,7156,8688,9684,10832,11994,12725,13790,14633,15518,16620,17778,19038,20039,21283,22329,23357,24749,26175,27908,29174,30428,31711,33011,34550,37294,38903,40734,42403,43749,45363,47022,48962,50767,52606,54096,55327,56758,58714,60382,62141,63558,65112,67736,69176,71560,73119,74742,76049,78129,79866
554,Wausau-Stevens Point-Wisconsin Rapids, WI,-89.75641,44.80688,0,0,0,0,0,0,0,0,0,0,0,0,0,0,0,0,0,0,0,0,0,0,0,0,0,0,0,0,0,0,0,0,0,0,0,0,0,0,0,0,0,0,0,0,0,0,0,0,0,0,0,0,0,0,1,1,1,1,2,2,2,2,2,2,3,4,4,4,5,6,8,12,14,14,17,17,18,18,18,18,19,19,20,20,20,20,22,23,23,23,23,23,23,23,24,24,23,23,24,25,26,28,28,29,31,31,31,32,34,34,37,37,40,43,45,48,49,50,52,53,55,56,59,64,65,66
556,Wichita-Winfield, KS,-97.42672,37.68803,0,0,0,0,0,0,0,0,0,0,0,0,0,0,0,0,0,0,0,0,0,0,0,0,0,0,0,0,0,0,0,0,0,0,0,0,0,0,0,0,0,0,0,0,0,0,0,0,0,0,0,1,1,1,1,1,1,2,3,3,5,5,10,14,20,25,38,47,54,63,72,90,97,110,121,138,149,169,176,176,206,211,216,223,227,238,251,259,263,271,304,317,338,346,357,361,365,381,394,431,435,446,455,465,469,471,484,487,488,498,499,501,538,560,568,572,573,575,577,578,585,590,599,605,608,610
558,Williamsport-Lock Haven, PA,-77.20985,41.31534,0,0,0,0,0,0,0,0,0,0,0,0,0,0,0,0,0,0,0,0,0,0,0,0,0,0,0,0,0,0,0,0,0,0,0,0,0,0,0,0,0,0,0,0,0,0,0,0,0,0,0,0,0,0,0,0,0,0,0,0,0,0,0,1,1,2,2,3,4,6,7,7,9,11,10,13,15,18,21,24,27,31,36,37,38,38,42,47,48,51,53,56,58,65,71,76,82,87,91,99,103,115,117,119,119,124,134,146,168,172,173,173,180,182,184,189,191,193,194,197,200,203,207,208,211,215
566,Youngstown-Warren, OH-PA,-80.75207,41.02776,0,0,0,0,0,0,0,0,0,0,0,0,0,0,0,0,0,0,0,0,0,0,0,0,0,0,0,0,0,0,0,0,0,0,0,0,0,0,0,0,0,0,0,0,0,0,0,0,0,0,1,1,2,2,2,3,5,7,10,17,24,29,37,57,71,96,122,138,177,226,262,286,328,390,410,445,495,529,577,635,664,730,774,815,855,901,970,1021,1052,1094,1122,1150,1206,1244,1291,1318,1352,1384,1421,1454,1503,1547,1612,1661,1713,1753,1796,1862,1900,1923,1963,1983,2015,2054,2105,2152,2173,2215,2265,2283,2340,2380,2411,2441,2584,2649
