Key,CSAFP,NAME,Longitude,Latitude,1/22/20,1/23/20,1/24/20,1/25/20,1/26/20,1/27/20,1/28/20,1/29/20,1/30/20,1/31/20,2/1/20,2/2/20,2/3/20,2/4/20,2/5/20,2/6/20,2/7/20,2/8/20,2/9/20,2/10/20,2/11/20,2/12/20,2/13/20,2/14/20,2/15/20,2/16/20,2/17/20,2/18/20,2/19/20,2/20/20,2/21/20,2/22/20,2/23/20,2/24/20,2/25/20,2/26/20,2/27/20,2/28/20,2/29/20,3/1/20,3/2/20,3/3/20,3/4/20,3/5/20,3/6/20,3/7/20,3/8/20,3/9/20,3/10/20,3/11/20,3/12/20,3/13/20,3/14/20,3/15/20,3/16/20,3/17/20,3/18/20,3/19/20,3/20/20,3/21/20,3/22/20,3/23/20,3/24/20,3/25/20,3/26/20,3/27/20,3/28/20,3/29/20,3/30/20,3/31/20,4/1/20,4/2/20,4/3/20,4/4/20,4/5/20,4/6/20,4/7/20,4/8/20,4/9/20,4/10/20,4/11/20,4/12/20
"104-Albany-Schenectady, NY",104,"Albany-Schenectady, NY",-73.43043448,43.31153794,0,0,0,0,0,0,0,0,0,0,0,0,0,0,0,0,0,0,0,0,0,0,0,0,0,0,0,0,0,0,0,0,0,0,0,0,0,0,0,0,0,0,0,0,0,0,0,0,0,0,0,0,0,0,0,0,1,1,1,1,1,1,3,4,4,6,9,9,9,9,11,12,15,16,18,19,19,20,25,26,31,34
"106-Albuquerque-Santa Fe-Las Vegas, NM",106,"Albuquerque-Santa Fe-Las Vegas, NM",-106.8103733,34.71669834,0,0,0,0,0,0,0,0,0,0,0,0,0,0,0,0,0,0,0,0,0,0,0,0,0,0,0,0,0,0,0,0,0,0,0,0,0,0,0,0,0,0,0,0,0,0,0,0,0,0,0,0,0,0,0,0,0,0,0,0,0,0,0,0,0,0,1,2,2,5,5,5,5,5,7,7,7,7,8,11,14,18
"107-Altoona-Huntingdon, PA",107,"Altoona-Huntingdon, PA",-77.97673273,40.42162652,0,0,0,0,0,0,0,0,0,0,0,0,0,0,0,0,0,0,0,0,0,0,0,0,0,0,0,0,0,0,0,0,0,0,0,0,0,0,0,0,0,0,0,0,0,0,0,0,0,0,0,0,0,0,0,0,0,0,0,0,0,0,0,0,0,0,1,1,1,1,1,2,3,4,4,4,5,6,8,8,10,10
"108-Amarillo-Pampa-Borger, TX",108,"Amarillo-Pampa-Borger, TX",-101.8971322,34.96585996,0,0,0,0,0,0,0,0,0,0,0,0,0,0,0,0,0,0,0,0,0,0,0,0,0,0,0,0,0,0,0,0,0,0,0,0,0,0,0,0,0,0,0,0,0,0,0,0,0,0,0,0,0,0,0,0,0,0,2,2,2,2,2,2,2,3,3,6,6,10,17,17,21,24,34,36,36,40,52,56,60,64
"118-Appleton-Oshkosh-Neenah, WI",118,"Appleton-Oshkosh-Neenah, WI",-88.64477096,44.06886922,0,0,0,0,0,0,0,0,0,0,0,0,0,0,0,0,0,0,0,0,0,0,0,0,0,0,0,0,0,0,0,0,0,0,0,0,0,0,0,0,0,0,0,0,0,0,0,0,0,0,0,0,1,1,3,3,5,5,5,5,5,5,5,5,6,6,7,8,10,11,19,24,24,24,20,24,24,24,25,25,25,27
"120-Asheville-Marion-Brevard, NC",120,"Asheville-Marion-Brevard, NC",-82.79638423,35.20383864,0,0,0,0,0,0,0,0,0,0,0,0,0,0,0,0,0,0,0,0,0,0,0,0,0,0,0,0,0,0,0,0,0,0,0,0,0,0,0,0,0,0,0,0,0,0,0,0,0,0,0,0,0,0,0,0,0,0,0,0,0,1,1,2,2,3,3,3,3,5,5,5,5,5,5,5,6,6,6,6,6,6
"122-Atlanta--Athens-Clarke County--Sandy Springs, GA-AL",122,"Atlanta--Athens-Clarke County--Sandy Springs, GA-AL",-83.73552314,33.78017694,0,0,0,0,0,0,0,0,0,0,0,0,0,0,0,0,0,0,0,0,0,0,0,0,0,0,0,0,0,0,0,0,0,0,0,0,0,0,0,0,0,0,0,0,0,0,0,0,0,0,0,0,0,0,0,0,0,0,0,0,0,0,1,1,0,0,2,5,4,6,12,14,16,16,19,23,24,25,27,36,36,39
"140-Bend-Prineville, OR",140,"Bend-Prineville, OR",-121.2289121,43.91570171,0,0,0,0,0,0,0,0,0,0,0,0,0,0,0,0,0,0,0,0,0,0,0,0,0,0,0,0,0,0,0,0,0,0,0,0,0,0,0,0,0,0,0,0,0,0,0,0,0,1,1,1,3,3,4,6,6,6,8,9,10,10,10,10,15,18,20,23,25,24,27,32,36,36,39,39,40,44,50,50,51,54
"142-Birmingham-Hoover-Talladega, AL",142,"Birmingham-Hoover-Talladega, AL",-87.30027177,33.80270512,0,0,0,0,0,0,0,0,0,0,0,0,0,0,0,0,0,0,0,0,0,0,0,0,0,0,0,0,0,0,0,0,0,0,0,0,0,0,0,0,0,0,0,0,0,0,0,0,0,0,0,0,0,0,0,0,0,1,1,1,1,3,5,9,17,23,28,30,30,32,32,34,48,49,49,54,63,65,69,72,78,81
"144-Bloomington-Bedford, IN",144,"Bloomington-Bedford, IN",-86.83900724,39.31145587,0,0,0,0,0,0,0,0,0,0,0,0,0,0,0,0,0,0,0,0,0,0,0,0,0,0,0,0,0,0,0,0,0,0,0,0,0,0,0,0,0,0,0,0,0,0,0,0,0,0,0,0,0,0,0,0,0,1,1,1,1,1,2,4,4,5,7,9,10,11,12,12,13,13,15,15,17,17,17,18,18,19
"145-Bloomington-Pontiac, IL",145,"Bloomington-Pontiac, IL",-88.84621113,40.48996987,0,0,0,0,0,0,0,0,0,0,0,0,0,0,0,0,0,0,0,0,0,0,0,0,0,0,0,0,0,0,0,0,0,0,0,0,0,0,0,0,0,0,0,0,0,0,0,0,0,0,0,0,0,0,0,0,0,0,1,6,6,7,7,7,8,10,10,14,17,19,18,32,35,40,46,46,46,65,65,75,75,77
"146-Bloomsburg-Berwick-Sunbury, PA",146,"Bloomsburg-Berwick-Sunbury, PA",-77.05996014,40.96188846,0,0,0,0,0,0,0,0,0,0,0,0,0,0,0,0,0,0,0,0,0,0,0,0,0,0,0,0,0,0,0,0,0,0,0,0,0,0,0,0,0,0,0,0,0,0,0,0,0,0,0,0,0,0,0,0,0,0,0,0,0,0,0,0,0,1,0,0,4,4,2,2,3,5,6,6,7,8,11,12,14,19
"147-Boise City-Mountain Home-Ontario, ID-OR",147,"Boise City-Mountain Home-Ontario, ID-OR",-117.6227395,43.1937027,0,0,0,0,0,0,0,0,0,0,0,0,0,0,0,0,0,0,0,0,0,0,0,0,0,0,0,0,0,0,0,0,0,0,0,0,0,0,0,0,0,0,0,0,0,0,0,0,0,0,0,0,0,0,0,0,0,0,0,0,0,0,0,0,0,0,0,0,0,1,1,1,2,2,2,2,2,2,2,2,2,4
"148-Boston-Worcester-Providence, MA-RI-NH-CT",148,"Boston-Worcester-Providence, MA-RI-NH-CT",-71.61435303,41.45961631,0,0,0,0,0,0,0,0,0,0,0,0,0,0,0,0,0,0,0,0,0,0,0,0,0,0,0,0,0,0,0,0,0,0,0,0,0,0,0,0,0,0,0,0,0,0,0,0,0,0,0,0,0,0,0,0,0,0,0,8,9,9,9,9,14,14,14,23,23,28,25,34,34,34,48,53,70,120,120,120,140,140
"150-Bowling Green-Glasgow, KY",150,"Bowling Green-Glasgow, KY",-86.42672750999999,36.99903045,0,0,0,0,0,0,0,0,0,0,0,0,0,0,0,0,0,0,0,0,0,0,0,0,0,0,0,0,0,0,0,0,0,0,0,0,0,0,0,0,0,0,0,0,0,0,0,0,0,0,0,0,0,0,0,0,0,0,2,2,2,4,4,5,5,5,5,9,12,13,13,13,13,18,21,21,21,21,24,24,24,49
"154-Brownsville-Harlingen-Raymondville, TX",154,"Brownsville-Harlingen-Raymondville, TX",-97.61535848,26.47411727,0,0,0,0,0,0,0,0,0,0,0,0,0,0,0,0,0,0,0,0,0,0,0,0,0,0,0,0,0,0,0,0,0,0,0,0,0,0,0,0,0,0,0,0,0,0,0,0,0,0,0,0,0,0,0,0,0,0,0,0,0,0,0,0,0,1,1,1,2,2,2,3,3,5,5,5,5,7,5,5,5,5
"160-Buffalo-Cheektowaga-Olean, NY",160,"Buffalo-Cheektowaga-Olean, NY",-78.74777412,43.19898042,0,0,0,0,0,0,0,0,0,0,0,0,0,0,0,0,0,0,0,0,0,0,0,0,0,0,0,0,0,0,0,0,0,0,0,0,0,0,0,0,0,0,0,0,0,0,0,0,0,0,0,0,0,0,0,0,0,4,4,9,9,9,10,12,14,23,33,38,41,41,46,91,94,101,116,120,126,155,155,156,167,194
"161-Burlington-Fort Madison-Keokuk, IA-IL-MO",161,"Burlington-Fort Madison-Keokuk, IA-IL-MO",-91.73661677,40.41040752,0,0,0,0,0,0,0,0,0,0,0,0,0,0,0,0,0,0,0,0,0,0,0,0,0,0,0,0,0,0,0,0,0,0,0,0,0,0,0,0,0,0,0,0,0,0,0,0,0,0,0,0,0,0,0,0,0,0,0,0,0,0,0,0,0,0,0,0,0,0,0,0,0,1,1,1,1,1,1,1,1,1
"162-Burlington-South Burlington-Barre, VT",162,"Burlington-South Burlington-Barre, VT",-72.61604978,44.27343241,0,0,0,0,0,0,0,0,0,0,0,0,0,0,0,0,0,0,0,0,0,0,0,0,0,0,0,0,0,0,0,0,0,0,0,0,0,0,0,0,0,0,0,0,0,0,0,0,0,0,0,0,1,1,1,1,1,1,1,2,2,3,3,5,7,9,10,12,12,15,15,18,21,21,22,22,24,24,24,24,28,28
"163-Cape Coral-Fort Myers-Naples, FL",163,"Cape Coral-Fort Myers-Naples, FL",-81.88399313,26.584103480000003,0,0,0,0,0,0,0,0,0,0,0,0,0,0,0,0,0,0,0,0,0,0,0,0,0,0,0,0,0,0,0,0,0,0,0,0,0,0,0,0,0,0,0,0,0,2,2,2,2,2,3,4,4,5,5,5,10,11,14,17,26,30,32,42,56,76,101,124,164,206,212,275,304,348,379,397,434,462,496,547,584,617
"164-Cape Girardeau-Sikeston, MO-IL",164,"Cape Girardeau-Sikeston, MO-IL",-89.56474493,37.05588075,0,0,0,0,0,0,0,0,0,0,0,0,0,0,0,0,0,0,0,0,0,0,0,0,0,0,0,0,0,0,0,0,0,0,0,0,0,0,0,0,0,0,0,0,0,0,0,0,0,0,0,0,0,0,0,0,0,0,1,1,1,1,1,1,1,1,3,3,5,6,6,6,6,7,7,10,10,11,11,13,14,15
"168-Cedar Rapids-Iowa City, IA",168,"Cedar Rapids-Iowa City, IA",-91.71725711,41.33577126,0,0,0,0,0,0,0,0,0,0,0,0,0,0,0,0,0,0,0,0,0,0,0,0,0,0,0,0,0,0,0,0,0,0,0,0,0,0,0,0,0,0,0,0,0,0,0,0,0,0,0,0,0,0,0,0,1,1,1,2,3,3,4,6,8,11,11,13,18,24,34,36,43,47,49,52,57,62,65,70,79,81
"170-Charleston-Huntington-Ashland, WV-OH-KY",170,"Charleston-Huntington-Ashland, WV-OH-KY",-82.42287994,38.14901357,0,0,0,0,0,0,0,0,0,0,0,0,0,0,0,0,0,0,0,0,0,0,0,0,0,0,0,0,0,0,0,0,0,0,0,0,0,0,0,0,0,0,0,0,0,0,0,0,0,0,0,0,0,0,0,0,0,0,0,0,0,0,0,0,0,0,0,0,0,0,0,0,0,0,0,0,0,0,0,17,17,17
"172-Charlotte-Concord, NC-SC",172,"Charlotte-Concord, NC-SC",-81.18085944,34.97281497,0,0,0,0,0,0,0,0,0,0,0,0,0,0,0,0,0,0,0,0,0,0,0,0,0,0,0,0,0,0,0,0,0,0,0,0,0,0,0,0,0,0,0,0,0,0,0,0,0,0,0,0,0,0,0,1,1,1,1,2,4,7,11,18,18,19,31,36,43,56,66,66,73,81,85,95,108,108,120,125,127,134
"174-Chattanooga-Cleveland-Dalton, TN-GA",174,"Chattanooga-Cleveland-Dalton, TN-GA",-85.41022136,35.36979721,0,0,0,0,0,0,0,0,0,0,0,0,0,0,0,0,0,0,0,0,0,0,0,0,0,0,0,0,0,0,0,0,0,0,0,0,0,0,0,0,0,0,0,0,0,0,0,0,0,0,0,0,0,0,0,0,0,0,0,0,0,0,0,0,0,0,0,0,0,1,1,2,2,2,2,2,2,1,1,1,1,1
"176-Chicago-Naperville, IL-IN-WI",176,"Chicago-Naperville, IL-IN-WI",-88.04051686,42.57639354,0,0,0,0,0,0,0,0,0,0,0,0,0,0,0,0,0,0,0,0,0,0,0,0,0,0,0,0,0,0,0,0,0,0,0,0,0,0,0,0,0,0,0,0,0,0,0,0,0,0,0,0,0,0,1,4,4,4,4,5,10,12,13,14,19,23,24,29,30,37,54,67,81,81,98,104,112,127,135,147,163,173
"178-Cincinnati-Wilmington-Maysville, OH-KY-IN",178,"Cincinnati-Wilmington-Maysville, OH-KY-IN",-84.16557457,39.42581994,0,0,0,0,0,0,0,0,0,0,0,0,0,0,0,0,0,0,0,0,0,0,0,0,0,0,0,0,0,0,0,0,0,0,0,0,0,0,0,0,0,0,0,0,0,0,0,0,0,0,0,0,0,0,0,0,0,0,2,2,3,5,7,8,10,11,16,20,20,21,23,26,31,35,36,37,45,46,53,72,74,75
"184-Cleveland-Akron-Canton, OH",184,"Cleveland-Akron-Canton, OH",-81.88844833,40.82925852,0,0,0,0,0,0,0,0,0,0,0,0,0,0,0,0,0,0,0,0,0,0,0,0,0,0,0,0,0,0,0,0,0,0,0,0,0,0,0,0,0,0,0,0,0,0,0,0,0,0,0,0,0,0,0,0,0,0,0,0,0,0,0,1,2,3,4,4,7,9,11,11,13,25,26,26,29,30,30,37,40,50
"185-Cleveland-Indianola, MS",185,"Cleveland-Indianola, MS",-90.58882684,33.60192578,0,0,0,0,0,0,0,0,0,0,0,0,0,0,0,0,0,0,0,0,0,0,0,0,0,0,0,0,0,0,0,0,0,0,0,0,0,0,0,0,0,0,0,0,0,0,0,0,0,0,0,0,0,0,0,0,0,0,0,0,2,2,3,3,4,5,7,10,10,11,12,12,13,18,19,19,25,27,32,34,35,35
"188-Clovis-Portales, NM",188,"Clovis-Portales, NM",-103.4799493,34.02097406,0,0,0,0,0,0,0,0,0,0,0,0,0,0,0,0,0,0,0,0,0,0,0,0,0,0,0,0,0,0,0,0,0,0,0,0,0,0,0,0,0,0,0,0,0,0,0,0,0,0,0,0,0,0,0,0,0,0,0,0,0,0,0,0,0,0,1,1,1,1,1,1,1,1,1,1,1,1,1,1,1,1
"190-Columbia-Moberly-Mexico, MO",190,"Columbia-Moberly-Mexico, MO",-92.4971374,39.44007257,0,0,0,0,0,0,0,0,0,0,0,0,0,0,0,0,0,0,0,0,0,0,0,0,0,0,0,0,0,0,0,0,0,0,0,0,0,0,0,0,0,0,0,0,0,0,0,0,0,0,0,0,0,0,0,0,0,0,0,0,0,0,1,1,1,1,1,1,1,2,2,2,2,7,7,7,7,7,7,8,8,8
"192-Columbia-Orangeburg-Newberry, SC",192,"Columbia-Orangeburg-Newberry, SC",-81.72713237,34.00795823,0,0,0,0,0,0,0,0,0,0,0,0,0,0,0,0,0,0,0,0,0,0,0,0,0,0,0,0,0,0,0,0,0,0,0,0,0,0,0,0,0,0,0,0,0,0,0,0,0,0,0,0,0,0,0,0,0,1,1,1,1,1,1,1,1,1,1,1,1,1,1,2,2,4,4,4,5,5,7,7,7,6
"194-Columbus-Auburn-Opelika, GA-AL",194,"Columbus-Auburn-Opelika, GA-AL",-84.53351366,32.69642758,0,0,0,0,0,0,0,0,0,0,0,0,0,0,0,0,0,0,0,0,0,0,0,0,0,0,0,0,0,0,0,0,0,0,0,0,0,0,0,0,0,0,0,0,0,0,0,0,0,0,0,0,0,0,0,0,0,0,0,0,0,0,0,0,0,0,0,0,0,1,1,1,2,3,4,5,6,8,7,9,9,9
"198-Columbus-Marion-Zanesville, OH",198,"Columbus-Marion-Zanesville, OH",-83.37239023,40.30016061,0,0,0,0,0,0,0,0,0,0,0,0,0,0,0,0,0,0,0,0,0,0,0,0,0,0,0,0,0,0,0,0,0,0,0,0,0,0,0,0,0,0,0,0,0,0,0,0,0,0,0,0,0,0,0,0,0,0,1,1,1,1,2,3,3,3,3,3,4,4,4,4,4,7,8,8,8,8,9,10,10,10
"200-Columbus-West Point, MS",200,"Columbus-West Point, MS",-88.44191529999996,33.47386518,0,0,0,0,0,0,0,0,0,0,0,0,0,0,0,0,0,0,0,0,0,0,0,0,0,0,0,0,0,0,0,0,0,0,0,0,0,0,0,0,0,0,0,0,0,0,0,0,0,0,0,0,0,0,0,0,0,0,0,0,4,6,6,6,8,9,10,10,10,11,11,10,12,13,15,15,16,17,18,19,22,24
"204-Corpus Christi-Kingsville-Alice, TX",204,"Corpus Christi-Kingsville-Alice, TX",-97.51763891,28.00880118,0,0,0,0,0,0,0,0,0,0,0,0,0,0,0,0,0,0,0,0,0,0,0,0,0,0,0,0,0,0,0,0,0,0,0,0,0,0,0,0,0,0,0,0,0,0,0,0,0,0,0,0,0,0,0,0,0,0,0,0,0,0,0,1,2,2,2,2,2,2,2,2,3,4,5,2,2,7,7,7,7,7
"206-Dallas-Fort Worth, TX-OK",206,"Dallas-Fort Worth, TX-OK",-97.65460265,33.21570665,0,0,0,0,0,0,0,0,0,0,0,0,0,0,0,0,0,0,0,0,0,0,0,0,0,0,0,0,0,0,0,0,0,0,0,0,0,0,0,0,0,0,0,0,0,0,0,0,0,0,0,0,0,0,0,0,0,0,0,0,0,0,0,0,0,0,0,0,1,1,1,3,3,3,3,3,3,3,3,4,5,5
"209-Davenport-Moline, IA-IL",209,"Davenport-Moline, IA-IL",-90.61959493,41.63935978,0,0,0,0,0,0,0,0,0,0,0,0,0,0,0,0,0,0,0,0,0,0,0,0,0,0,0,0,0,0,0,0,0,0,0,0,0,0,0,0,0,0,0,0,0,0,0,0,0,0,0,0,0,0,0,0,0,0,0,1,1,1,1,3,7,7,10,10,16,18,21,25,31,38,41,52,66,77,88,99,111,115
"212-Dayton-Springfield-Kettering, OH",212,"Dayton-Springfield-Kettering, OH",-84.20258189000002,40.33163494,0,0,0,0,0,0,0,0,0,0,0,0,0,0,0,0,0,0,0,0,0,0,0,0,0,0,0,0,0,0,0,0,0,0,0,0,0,0,0,0,0,0,0,0,0,0,0,0,0,0,0,0,0,0,0,0,0,0,0,0,0,0,0,0,1,1,3,3,4,5,6,6,7,10,12,17,18,19,21,24,25,27
"216-Denver-Aurora, CO",216,"Denver-Aurora, CO",-104.3929621,40.55499405,0,0,0,0,0,0,0,0,0,0,0,0,0,0,0,0,0,0,0,0,0,0,0,0,0,0,0,0,0,0,0,0,0,0,0,0,0,0,0,0,0,0,0,0,0,0,0,0,0,0,0,2,3,3,5,6,9,9,15,21,37,50,50,87,107,107,129,180,180,255,255,293,329,379,470,504,537,573,573,614,649,738
"217-DeRidder-Fort Polk South, LA",217,"DeRidder-Fort Polk South, LA",-93.18153838,31.10884837,0,0,0,0,0,0,0,0,0,0,0,0,0,0,0,0,0,0,0,0,0,0,0,0,0,0,0,0,0,0,0,0,0,0,0,0,0,0,0,0,0,0,0,0,0,0,0,0,0,0,0,0,0,0,0,0,0,0,0,0,0,0,2,2,2,2,2,2,3,3,6,7,8,11,10,10,11,11,11,13,14,14
"218-Des Moines-Ames-West Des Moines, IA",218,"Des Moines-Ames-West Des Moines, IA",-93.56007641,41.33559454,0,0,0,0,0,0,0,0,0,0,0,0,0,0,0,0,0,0,0,0,0,0,0,0,0,0,0,0,0,0,0,0,0,0,0,0,0,0,0,0,0,0,0,0,0,0,0,0,0,0,0,0,0,0,0,0,0,0,0,0,0,0,1,1,1,1,1,1,1,3,4,6,8,9,10,11,12,13,13,15,15,16
"220-Detroit-Warren-Ann Arbor, MI",220,"Detroit-Warren-Ann Arbor, MI",-83.281255,42.28098405,0,0,0,0,0,0,0,0,0,0,0,0,0,0,0,0,0,0,0,0,0,0,0,0,0,0,0,0,0,0,0,0,0,0,0,0,0,0,0,0,0,0,0,0,0,0,0,0,0,1,1,2,6,8,14,14,23,44,67,102,477,638,876,1122,1389,1810,2316,2704,3195,3735,4470,5069,6096,6762,7518,8270,9045,9626,10093,10539,10951,11164
"221-Dixon-Sterling, IL",221,"Dixon-Sterling, IL",-89.91556058,41.75509713,0,0,0,0,0,0,0,0,0,0,0,0,0,0,0,0,0,0,0,0,0,0,0,0,0,0,0,0,0,0,0,0,0,0,0,0,0,0,0,0,0,0,0,0,0,0,0,0,0,0,0,0,0,0,0,1,1,1,1,1,1,1,1,1,1,2,2,3,4,5,5,6,9,15,18,18,18,21,21,24,25,26
"222-Dothan-Ozark, AL",222,"Dothan-Ozark, AL",-85.29939599,31.15197924,0,0,0,0,0,0,0,0,0,0,0,0,0,0,0,0,0,0,0,0,0,0,0,0,0,0,0,0,0,0,0,0,0,0,0,0,0,0,0,0,0,0,0,0,0,0,0,0,0,0,0,0,0,0,0,0,0,0,0,0,0,1,1,2,3,3,4,6,9,9,8,9,12,14,15,22,25,25,30,33,37,44
"232-Eau Claire-Menomonie, WI",232,"Eau Claire-Menomonie, WI",-91.28609183,44.726614,0,0,0,0,0,0,0,0,0,0,0,0,0,0,0,0,0,0,0,0,0,0,0,0,0,0,0,0,0,0,0,0,0,0,0,0,0,0,0,0,0,0,0,0,0,0,0,0,0,0,0,0,0,0,0,0,0,1,3,3,4,4,4,5,6,7,7,10,10,11,12,14,16,16,21,21,21,21,21,21,21,21
"233-Edwards-Glenwood Springs, CO",233,"Edwards-Glenwood Springs, CO",-106.9310027,39.21720112,0,0,0,0,0,0,0,0,0,0,0,0,0,0,0,0,0,0,0,0,0,0,0,0,0,0,0,0,0,0,0,0,0,0,0,0,0,0,0,0,0,0,0,0,0,0,0,0,0,3,10,10,11,11,11,11,11,11,14,15,16,16,18,18,23,23,25,27,27,30,30,33,36,38,38,39,39,39,39,39,47,49
"236-Elmira-Corning, NY",236,"Elmira-Corning, NY",-77.3829924,42.2689144,0,0,0,0,0,0,0,0,0,0,0,0,0,0,0,0,0,0,0,0,0,0,0,0,0,0,0,0,0,0,0,0,0,0,0,0,0,0,0,0,0,0,0,0,0,0,0,0,0,0,0,0,0,0,0,0,0,0,2,2,2,4,8,8,11,12,13,17,19,19,38,43,46,60,73,75,75,87,92,117,117,147
"238-El Paso-Las Cruces, TX-NM",238,"El Paso-Las Cruces, TX-NM",-106.2363275,31.76980765,0,0,0,0,0,0,0,0,0,0,0,0,0,0,0,0,0,0,0,0,0,0,0,0,0,0,0,0,0,0,0,0,0,0,0,0,0,0,0,0,0,0,0,0,0,0,0,0,0,0,0,0,1,1,2,3,3,6,6,7,7,9,10,16,28,28,38,42,40,53,57,75,85,103,113,132,132,153,192,225,252,269
"240-Erie-Meadville, PA",240,"Erie-Meadville, PA",-80.03301954,41.99253829,0,0,0,0,0,0,0,0,0,0,0,0,0,0,0,0,0,0,0,0,0,0,0,0,0,0,0,0,0,0,0,0,0,0,0,0,0,0,0,0,0,0,0,0,0,0,0,0,0,0,0,0,0,0,0,0,1,1,1,1,2,3,5,5,5,7,7,7,13,14,15,17,17,19,19,27,29,29,32,36,39,39
"244-Fargo-Wahpeton, ND-MN",244,"Fargo-Wahpeton, ND-MN",-96.94852979,46.26440649,0,0,0,0,0,0,0,0,0,0,0,0,0,0,0,0,0,0,0,0,0,0,0,0,0,0,0,0,0,0,0,0,0,0,0,0,0,0,0,0,0,0,0,0,0,0,0,0,0,0,0,0,0,0,0,0,0,0,0,0,0,0,0,0,0,0,0,0,0,0,0,0,0,0,0,0,0,0,1,1,2,2
"246-Fayetteville-Sanford-Lumberton, NC",246,"Fayetteville-Sanford-Lumberton, NC",-79.4757978,34.8386299,0,0,0,0,0,0,0,0,0,0,0,0,0,0,0,0,0,0,0,0,0,0,0,0,0,0,0,0,0,0,0,0,0,0,0,0,0,0,0,0,0,0,0,0,0,0,0,0,0,0,0,0,0,0,0,0,0,0,0,0,1,1,1,1,1,1,1,2,2,2,2,2,2,2,2,2,3,3,4,4,9,9
"258-Fort Wayne-Huntington-Auburn, IN",258,"Fort Wayne-Huntington-Auburn, IN",-85.50791236000002,41.13863784,0,0,0,0,0,0,0,0,0,0,0,0,0,0,0,0,0,0,0,0,0,0,0,0,0,0,0,0,0,0,0,0,0,0,0,0,0,0,0,0,0,0,0,0,0,0,0,0,0,0,0,0,0,0,0,0,0,0,0,0,0,0,0,0,0,0,1,1,1,2,3,3,4,5,6,8,8,8,8,10,11,12
"260-Fresno-Madera-Hanford, CA",260,"Fresno-Madera-Hanford, CA",-119.76655890000002,37.21513971,0,0,0,0,0,0,0,0,0,0,0,0,0,0,0,0,0,0,0,0,0,0,0,0,0,0,0,0,0,0,0,0,0,0,0,0,0,0,0,0,0,0,0,0,0,1,1,1,1,1,1,1,1,1,1,1,1,1,3,3,3,3,6,6,7,10,11,15,18,21,23,25,28,28,28,28,28,28,28,30,32,32
"264-Gainesville-Lake City, FL",264,"Gainesville-Lake City, FL",-82.74007147,29.31829741,0,0,0,0,0,0,0,0,0,0,0,0,0,0,0,0,0,0,0,0,0,0,0,0,0,0,0,0,0,0,0,0,0,0,0,0,0,0,0,0,0,0,0,0,0,0,0,0,0,0,0,0,0,0,0,0,0,0,0,0,0,0,0,0,0,0,1,2,2,2,2,2,2,2,4,4,5,5,6,6,6,8
"266-Grand Rapids-Kentwood-Muskegon, MI",266,"Grand Rapids-Kentwood-Muskegon, MI",-85.9969107,42.95996803,0,0,0,0,0,0,0,0,0,0,0,0,0,0,0,0,0,0,0,0,0,0,0,0,0,0,0,0,0,0,0,0,0,0,0,0,0,0,0,0,0,0,0,0,0,0,0,0,0,0,0,0,0,0,1,1,1,1,1,2,6,11,15,16,18,21,23,25,28,31,31,35,37,39,44,44,52,55,59,61,64,66
"267-Green Bay-Shawano, WI",267,"Green Bay-Shawano, WI",-88.76443896,44.78902246,0,0,0,0,0,0,0,0,0,0,0,0,0,0,0,0,0,0,0,0,0,0,0,0,0,0,0,0,0,0,0,0,0,0,0,0,0,0,0,0,0,0,0,0,0,0,0,0,0,0,0,0,0,0,0,0,0,0,0,0,0,0,0,0,0,0,0,0,0,0,0,0,0,0,1,2,3,3,4,5,5,5
"268-Greensboro--Winston-Salem--High Point, NC",268,"Greensboro--Winston-Salem--High Point, NC",-80.66239436,36.16222629,0,0,0,0,0,0,0,0,0,0,0,0,0,0,0,0,0,0,0,0,0,0,0,0,0,0,0,0,0,0,0,0,0,0,0,0,0,0,0,0,0,0,0,0,0,0,0,0,0,0,0,0,0,0,0,0,0,0,0,0,0,0,0,0,0,0,1,1,1,3,3,4,6,6,9,9,9,9,9,10,10,14
"272-Greenville-Kinston-Washington, NC",272,"Greenville-Kinston-Washington, NC",-77.37353178,35.59535426,0,0,0,0,0,0,0,0,0,0,0,0,0,0,0,0,0,0,0,0,0,0,0,0,0,0,0,0,0,0,0,0,0,0,0,0,0,0,0,0,0,0,0,0,0,0,0,0,0,0,0,0,0,0,0,0,0,1,2,2,3,6,6,6,8,8,10,15,20,27,27,29,33,35,36,36,44,51,57,60,62,63
"273-Greenville-Spartanburg-Anderson, SC",273,"Greenville-Spartanburg-Anderson, SC",-81.61730349,34.68835752,0,0,0,0,0,0,0,0,0,0,0,0,0,0,0,0,0,0,0,0,0,0,0,0,0,0,0,0,0,0,0,0,0,0,0,0,0,0,0,0,0,0,0,0,0,0,0,0,0,0,0,0,0,0,0,0,0,0,0,0,0,0,0,1,1,1,1,1,3,3,3,5,6,9,11,12,15,15,19,20,22,22
"276-Harrisburg-York-Lebanon, PA",276,"Harrisburg-York-Lebanon, PA",-76.73040131,39.9210089,0,0,0,0,0,0,0,0,0,0,0,0,0,0,0,0,0,0,0,0,0,0,0,0,0,0,0,0,0,0,0,0,0,0,0,0,0,0,0,0,0,0,0,0,0,0,0,0,0,0,0,0,0,0,0,0,2,2,6,9,10,10,18,20,21,30,37,43,54,66,79,102,121,144,171,189,218,233,250,283,293,307
"277-Harrisonburg-Staunton, VA",277,"Harrisonburg-Staunton, VA",-78.90293905,38.06451466,0,0,0,0,0,0,0,0,0,0,0,0,0,0,0,0,0,0,0,0,0,0,0,0,0,0,0,0,0,0,0,0,0,0,0,0,0,0,0,0,0,0,0,0,0,0,0,0,0,0,0,0,0,0,0,0,0,0,0,0,0,0,0,0,0,0,0,0,0,2,2,2,3,2,2,3,3,2,3,5,5,5
"278-Hartford-East Hartford, CT",278,"Hartford-East Hartford, CT",-72.3308481,41.85853803,0,0,0,0,0,0,0,0,0,0,0,0,0,0,0,0,0,0,0,0,0,0,0,0,0,0,0,0,0,0,0,0,0,0,0,0,0,0,0,0,0,0,0,0,0,0,0,0,0,0,0,0,0,0,0,0,0,4,4,4,14,16,19,27,33,33,37,40,50,56,61,67,79,91,94,103,111,111,145,152,171,182
"279-Hattiesburg-Laurel, MS",279,"Hattiesburg-Laurel, MS",-88.99281835,31.17161885,0,0,0,0,0,0,0,0,0,0,0,0,0,0,0,0,0,0,0,0,0,0,0,0,0,0,0,0,0,0,0,0,0,0,0,0,0,0,0,0,0,0,0,0,0,0,0,0,0,0,0,0,0,0,0,0,1,1,1,1,1,1,1,1,1,2,2,2,2,3,5,6,11,13,14,14,14,14,14,15,16,18
"284-Hot Springs-Malvern, AR",284,"Hot Springs-Malvern, AR",-92.95396325,34.31709259,0,0,0,0,0,0,0,0,0,0,0,0,0,0,0,0,0,0,0,0,0,0,0,0,0,0,0,0,0,0,0,0,0,0,0,0,0,0,0,0,0,0,0,0,0,0,0,0,0,0,0,0,0,0,0,0,0,0,0,0,0,0,0,1,1,1,1,1,1,1,1,5,5,5,7,7,7,7,8,8,8,8
"288-Houston-The Woodlands, TX",288,"Houston-The Woodlands, TX",-96.22319248,29.27765923,0,0,0,0,0,0,0,0,0,0,0,0,0,0,0,0,0,0,0,0,0,0,0,0,0,0,0,0,0,0,0,0,0,0,0,0,0,0,0,0,0,0,0,0,0,0,0,0,0,0,0,0,0,0,0,0,0,0,0,1,1,1,1,3,3,3,3,3,6,6,7,9,9,9,9,13,17,18,18,24,24,26
"290-Huntsville-Decatur, AL",290,"Huntsville-Decatur, AL",-86.85475946,34.45500589,0,0,0,0,0,0,0,0,0,0,0,0,0,0,0,0,0,0,0,0,0,0,0,0,0,0,0,0,0,0,0,0,0,0,0,0,0,0,0,0,0,0,0,0,0,0,0,0,0,0,0,0,0,0,0,0,0,0,0,0,0,0,2,5,9,9,15,17,17,20,19,21,24,24,27,29,30,31,36,36,37,38
"292-Idaho Falls-Rexburg-Blackfoot, ID",292,"Idaho Falls-Rexburg-Blackfoot, ID",-111.65384740000002,43.78141028,0,0,0,0,0,0,0,0,0,0,0,0,0,0,0,0,0,0,0,0,0,0,0,0,0,0,0,0,0,0,0,0,0,0,0,0,0,0,0,0,0,0,0,0,0,0,0,0,0,0,0,0,0,0,0,1,1,1,1,1,1,2,2,2,2,2,2,2,2,5,4,4,4,4,4,4,4,4,4,5,5,5
"294-Indianapolis-Carmel-Muncie, IN",294,"Indianapolis-Carmel-Muncie, IN",-85.79158570000001,39.52305623,0,0,0,0,0,0,0,0,0,0,0,0,0,0,0,0,0,0,0,0,0,0,0,0,0,0,0,0,0,0,0,0,0,0,0,0,0,0,0,0,0,0,0,0,0,0,0,0,0,0,0,0,0,0,0,0,0,0,1,1,1,1,1,2,2,6,10,12,13,15,19,24,26,32,37,45,51,56,61,63,68,71
"296-Ithaca-Cortland, NY",296,"Ithaca-Cortland, NY",-76.47229843,42.44945765,0,0,0,0,0,0,0,0,0,0,0,0,0,0,0,0,0,0,0,0,0,0,0,0,0,0,0,0,0,0,0,0,0,0,0,0,0,0,0,0,0,0,0,0,0,0,0,0,0,0,0,0,1,1,2,2,6,6,11,11,15,15,16,18,23,32,48,56,70,73,76,80,87,93,95,102,103,105,107,107,108,113
"297-Jackson-Brownsville, TN",297,"Jackson-Brownsville, TN",-88.84076036,35.61181957,0,0,0,0,0,0,0,0,0,0,0,0,0,0,0,0,0,0,0,0,0,0,0,0,0,0,0,0,0,0,0,0,0,0,0,0,0,0,0,0,0,0,0,0,0,0,0,0,0,0,0,0,0,0,0,0,0,0,0,0,0,0,1,2,2,3,3,3,3,5,7,13,17,19,19,22,43,43,47,56,56,59
"298-Jackson-Vicksburg-Brookhaven, MS",298,"Jackson-Vicksburg-Brookhaven, MS",-90.39656148,32.77890365,0,0,0,0,0,0,0,0,0,0,0,0,0,0,0,0,0,0,0,0,0,0,0,0,0,0,0,0,0,0,0,0,0,0,0,0,0,0,0,0,0,0,0,0,0,0,0,0,0,0,0,0,0,0,0,0,0,1,1,1,1,1,3,3,3,4,4,5,5,9,9,11,13,19,31,32,32,38,47,55,58,63
"300-Jacksonville-St. Marys-Palatka, FL-GA",300,"Jacksonville-St. Marys-Palatka, FL-GA",-81.66601818,30.92951916,0,0,0,0,0,0,0,0,0,0,0,0,0,0,0,0,0,0,0,0,0,0,0,0,0,0,0,0,0,0,0,0,0,0,0,0,0,0,0,0,0,0,0,0,0,0,0,0,0,0,0,1,0,0,0,0,0,0,0,0,0,0,1,1,2,2,2,2,3,4,4,6,6,6,9,9,16,17,19,19,20,20
"304-Johnson City-Kingsport-Bristol, TN-VA",304,"Johnson City-Kingsport-Bristol, TN-VA",-82.16359122,36.6163024,0,0,0,0,0,0,0,0,0,0,0,0,0,0,0,0,0,0,0,0,0,0,0,0,0,0,0,0,0,0,0,0,0,0,0,0,0,0,0,0,0,0,0,0,0,0,0,0,0,0,0,0,0,0,0,0,0,0,0,0,0,0,0,0,0,1,1,1,1,1,1,1,1,1,1,1,1,1,1,1,1,1
"306-Johnstown-Somerset, PA",306,"Johnstown-Somerset, PA",-79.02699593,39.97172723,0,0,0,0,0,0,0,0,0,0,0,0,0,0,0,0,0,0,0,0,0,0,0,0,0,0,0,0,0,0,0,0,0,0,0,0,0,0,0,0,0,0,0,0,0,0,0,0,0,0,0,0,0,0,0,0,0,0,0,0,0,0,1,2,2,2,2,2,2,2,3,3,3,3,4,6,7,7,7,10,10,12
"308-Jonesboro-Paragould, AR",308,"Jonesboro-Paragould, AR",-90.66268713,35.57433534,0,0,0,0,0,0,0,0,0,0,0,0,0,0,0,0,0,0,0,0,0,0,0,0,0,0,0,0,0,0,0,0,0,0,0,0,0,0,0,0,0,0,0,0,0,0,0,0,0,0,0,0,0,0,0,0,0,0,0,0,1,3,3,3,3,3,3,3,3,5,5,5,5,5,5,5,6,6,6,7,7,7
"309-Joplin-Miami, MO-OK",309,"Joplin-Miami, MO-OK",-94.81011909,36.83532655,0,0,0,0,0,0,0,0,0,0,0,0,0,0,0,0,0,0,0,0,0,0,0,0,0,0,0,0,0,0,0,0,0,0,0,0,0,0,0,0,0,0,0,0,0,0,0,0,0,0,0,0,0,0,0,0,0,0,0,0,0,0,0,0,1,1,4,4,6,7,7,8,8,10,11,12,14,15,17,17,16,18
"310-Kalamazoo-Battle Creek-Portage, MI",310,"Kalamazoo-Battle Creek-Portage, MI",-85.52797979,41.91441767,0,0,0,0,0,0,0,0,0,0,0,0,0,0,0,0,0,0,0,0,0,0,0,0,0,0,0,0,0,0,0,0,0,0,0,0,0,0,0,0,0,0,0,0,0,0,0,0,0,0,0,0,0,0,0,0,0,0,0,0,0,0,0,0,0,0,0,0,3,4,5,8,10,9,10,11,14,16,18,20,20,21
"312-Kansas City-Overland Park-Kansas City, MO-KS",312,"Kansas City-Overland Park-Kansas City, MO-KS",-94.5786,39.0997,0,0,0,0,0,0,0,0,0,0,0,0,0,0,0,0,0,0,0,0,0,0,0,0,0,0,0,0,0,0,0,0,0,0,0,0,0,0,0,0,0,0,0,0,0,0,0,0,0,0,0,0,0,0,0,0,0,6,12,12,13,17,21,43,64,78,94,102,100,119,128,139,139,172,172,212,234,234,249,300,300,308
"313-Kennewick-Richland-Walla Walla, WA",313,"Kennewick-Richland-Walla Walla, WA",-118.4775539,46.23040051,0,0,0,0,0,0,0,0,0,0,0,0,0,0,0,0,0,0,0,0,0,0,0,0,0,0,0,0,0,0,0,0,0,0,0,0,0,0,0,0,0,0,0,0,0,0,0,0,0,0,0,0,0,0,0,0,0,0,0,1,1,1,1,2,2,2,4,5,6,6,7,8,8,8,9,12,13,16,17,17,20,21
"314-Kerrville-Fredericksburg, TX",314,"Kerrville-Fredericksburg, TX",-99.34930144,30.06040006,0,0,0,0,0,0,0,0,0,0,0,0,0,0,0,0,0,0,0,0,0,0,0,0,0,0,0,0,0,0,0,0,0,0,0,0,0,0,0,0,0,0,0,0,0,0,0,0,0,0,0,0,0,0,0,0,0,0,0,0,0,0,0,0,0,0,0,0,0,1,1,1,2,2,2,2,2,2,2,2,2,2
"315-Knoxville-Morristown-Sevierville, TN",315,"Knoxville-Morristown-Sevierville, TN",-83.83651902,36.28590426,0,0,0,0,0,0,0,0,0,0,0,0,0,0,0,0,0,0,0,0,0,0,0,0,0,0,0,0,0,0,0,0,0,0,0,0,0,0,0,0,0,0,0,0,0,0,0,0,0,0,0,0,0,0,0,0,0,0,0,0,0,0,0,0,0,0,1,1,1,1,1,1,1,1,1,1,1,2,1,3,3,3
"316-Kokomo-Peru, IN",316,"Kokomo-Peru, IN",-86.04525048,40.76940965,0,0,0,0,0,0,0,0,0,0,0,0,0,0,0,0,0,0,0,0,0,0,0,0,0,0,0,0,0,0,0,0,0,0,0,0,0,0,0,0,0,0,0,0,0,0,0,0,0,0,0,0,0,0,0,0,0,0,0,0,1,1,1,1,1,1,1,1,3,3,3,4,5,8,7,7,9,12,13,14,15,16
"318-Lafayette-Opelousas-Morgan City, LA",318,"Lafayette-Opelousas-Morgan City, LA",-92.30292538,29.835176049999998,0,0,0,0,0,0,0,0,0,0,0,0,0,0,0,0,0,0,0,0,0,0,0,0,0,0,0,0,0,0,0,0,0,0,0,0,0,0,0,0,0,0,0,0,0,0,0,0,0,0,0,0,0,0,0,0,0,0,0,0,0,0,0,0,1,2,3,2,3,8,10,16,18,15,16,17,19,22,22,22,24,26
"320-Lafayette-West Lafayette-Frankfort, IN",320,"Lafayette-West Lafayette-Frankfort, IN",-87.35602659,40.34728141,0,0,0,0,0,0,0,0,0,0,0,0,0,0,0,0,0,0,0,0,0,0,0,0,0,0,0,0,0,0,0,0,0,0,0,0,0,0,0,0,0,0,0,0,0,0,0,0,0,0,0,0,0,0,0,0,0,0,0,0,0,0,0,0,1,1,1,2,2,2,2,2,2,2,2,2,2,2,2,2,2,3
"324-Lake Charles-Jennings, LA",324,"Lake Charles-Jennings, LA",-92.81210004,30.26896765,0,0,0,0,0,0,0,0,0,0,0,0,0,0,0,0,0,0,0,0,0,0,0,0,0,0,0,0,0,0,0,0,0,0,0,0,0,0,0,0,0,0,0,0,0,0,0,0,0,0,0,0,0,0,0,0,0,0,0,0,0,0,0,1,1,1,1,2,3,5,9,13,14,9,13,21,25,28,30,32,35,44
"332-Las Vegas-Henderson, NV",332,"Las Vegas-Henderson, NV",-116.4722702,38.04264256,0,0,0,0,0,0,0,0,0,0,0,0,0,0,0,0,0,0,0,0,0,0,0,0,0,0,0,0,0,0,0,0,0,0,0,0,0,0,0,0,0,0,0,0,0,0,0,0,0,0,0,0,0,0,0,0,0,0,0,0,0,0,1,1,1,1,1,1,1,1,4,4,6,7,7,7,7,7,10,10,10,10
"336-Lexington-Fayette--Richmond--Frankfort, KY",336,"Lexington-Fayette--Richmond--Frankfort, KY",-84.7417556,38.04178222,0,0,0,0,0,0,0,0,0,0,0,0,0,0,0,0,0,0,0,0,0,0,0,0,0,0,0,0,0,0,0,0,0,0,0,0,0,0,0,0,0,0,0,0,0,0,0,0,0,0,0,0,0,0,0,0,0,0,0,0,0,0,0,0,0,0,0,3,3,5,5,5,5,8,9,9,8,8,9,9,9,17
"338-Lima-Van Wert-Celina, OH",338,"Lima-Van Wert-Celina, OH",-84.59111700000003,40.8554138,0,0,0,0,0,0,0,0,0,0,0,0,0,0,0,0,0,0,0,0,0,0,0,0,0,0,0,0,0,0,0,0,0,0,0,0,0,0,0,0,0,0,0,0,0,0,0,0,0,0,0,0,0,0,0,0,0,0,0,0,0,0,0,0,0,0,1,1,1,1,2,2,2,2,2,2,2,2,2,2,2,2
"339-Lincoln-Beatrice, NE",339,"Lincoln-Beatrice, NE",-97.139673,40.87241834,0,0,0,0,0,0,0,0,0,0,0,0,0,0,0,0,0,0,0,0,0,0,0,0,0,0,0,0,0,0,0,0,0,0,0,0,0,0,0,0,0,0,0,0,0,0,0,0,0,0,0,0,0,0,0,0,0,0,0,0,0,0,0,0,0,0,0,0,0,0,0,0,0,0,1,1,1,1,1,1,1,1
"340-Little Rock-North Little Rock, AR",340,"Little Rock-North Little Rock, AR",-91.74908296,35.25688493,0,0,0,0,0,0,0,0,0,0,0,0,0,0,0,0,0,0,0,0,0,0,0,0,0,0,0,0,0,0,0,0,0,0,0,0,0,0,0,0,0,0,0,0,0,0,0,0,0,0,0,0,0,0,0,0,0,0,0,0,0,1,1,1,1,6,6,6,6,10,11,15,23,23,25,25,27,27,27,27,28,28
"348-Los Angeles-Long Beach, CA",348,"Los Angeles-Long Beach, CA",-119.09106129999999,34.44465746,0,0,0,0,0,0,0,0,0,0,0,0,0,0,0,0,0,0,0,0,0,0,0,0,0,0,0,0,0,0,0,0,0,0,0,0,0,0,0,0,0,0,0,0,0,0,0,0,1,1,2,2,5,5,4,10,10,13,19,19,25,30,35,39,50,61,83,98,109,126,149,160,177,203,221,221,243,263,274,298,298,309
"350-Louisville/Jefferson County--Elizabethtown--Bardstown, KY-IN",350,"Louisville/Jefferson County--Elizabethtown--Bardstown, KY-IN",-85.32749335,38.03223971,0,0,0,0,0,0,0,0,0,0,0,0,0,0,0,0,0,0,0,0,0,0,0,0,0,0,0,0,0,0,0,0,0,0,0,0,0,0,0,0,0,0,0,0,0,0,0,0,0,0,0,0,0,0,0,0,0,0,0,0,0,1,1,1,1,1,1,2,2,2,2,2,2,2,2,2,2,2,3,3,3,6
"352-Lubbock-Plainview-Levelland, TX",352,"Lubbock-Plainview-Levelland, TX",-101.8162849,33.17657705,0,0,0,0,0,0,0,0,0,0,0,0,0,0,0,0,0,0,0,0,0,0,0,0,0,0,0,0,0,0,0,0,0,0,0,0,0,0,0,0,0,0,0,0,0,0,0,0,0,0,0,0,0,0,0,0,0,0,0,0,0,0,0,0,0,0,1,2,2,2,2,3,3,3,3,3,4,4,4,5,5,5
"356-Macon-Bibb County--Warner Robins, GA",356,"Macon-Bibb County--Warner Robins, GA",-83.43078662,32.67435595,0,0,0,0,0,0,0,0,0,0,0,0,0,0,0,0,0,0,0,0,0,0,0,0,0,0,0,0,0,0,0,0,0,0,0,0,0,0,0,0,0,0,0,0,0,0,0,0,0,0,0,0,0,0,0,0,0,0,0,0,1,1,1,2,2,2,2,2,2,2,2,2,2,2,2,2,2,2,2,2,2,2
"357-Madison-Janesville-Beloit, WI",357,"Madison-Janesville-Beloit, WI",-89.94966132,43.42574087,0,0,0,0,0,0,0,0,0,0,0,0,0,0,0,0,0,0,0,0,0,0,0,0,0,0,0,0,0,0,0,0,0,0,0,0,0,0,0,0,0,0,0,0,0,0,0,0,0,0,0,0,0,0,0,0,0,1,2,2,2,3,4,6,7,8,11,12,13,13,14,16,18,18,18,18,20,20,21,25,25,26
"359-Mankato-New Ulm, MN",359,"Mankato-New Ulm, MN",-94.24710352,44.35291112000001,0,0,0,0,0,0,0,0,0,0,0,0,0,0,0,0,0,0,0,0,0,0,0,0,0,0,0,0,0,0,0,0,0,0,0,0,0,0,0,0,0,0,0,0,0,0,0,0,0,0,0,0,0,0,0,0,2,2,2,2,3,3,3,3,3,3,3,3,3,3,3,3,3,4,4,4,4,5,5,6,6,6
"360-Mansfield-Ashland-Bucyrus, OH",360,"Mansfield-Ashland-Bucyrus, OH",-82.53799609999999,40.77180308,0,0,0,0,0,0,0,0,0,0,0,0,0,0,0,0,0,0,0,0,0,0,0,0,0,0,0,0,0,0,0,0,0,0,0,0,0,0,0,0,0,0,0,0,0,0,0,0,0,0,0,0,0,0,0,0,0,1,1,1,1,1,4,4,4,4,5,5,5,6,8,8,8,14,17,19,20,25,27,28,34,36
"361-Marinette-Iron Mountain, WI-MI",361,"Marinette-Iron Mountain, WI-MI",-88.03324599999998,45.38553432,0,0,0,0,0,0,0,0,0,0,0,0,0,0,0,0,0,0,0,0,0,0,0,0,0,0,0,0,0,0,0,0,0,0,0,0,0,0,0,0,0,0,0,0,0,0,0,0,0,0,0,0,0,0,0,0,0,0,0,0,0,0,0,0,0,1,1,1,1,1,2,2,2,2,2,3,3,3,3,3,3,3
"362-Martin-Union City, TN",362,"Martin-Union City, TN",-88.71990865,36.29896232,0,0,0,0,0,0,0,0,0,0,0,0,0,0,0,0,0,0,0,0,0,0,0,0,0,0,0,0,0,0,0,0,0,0,0,0,0,0,0,0,0,0,0,0,0,0,0,0,0,0,0,0,0,0,0,0,0,0,0,0,0,1,0,0,0,0,1,1,1,1,1,1,1,1,5,5,5,5,5,5,5,5
"365-McAllen-Edinburg, TX",365,"McAllen-Edinburg, TX",-98.73892358,26.56150059,0,0,0,0,0,0,0,0,0,0,0,0,0,0,0,0,0,0,0,0,0,0,0,0,0,0,0,0,0,0,0,0,0,0,0,0,0,0,0,0,0,0,0,0,0,0,0,0,0,0,0,0,0,0,0,0,0,0,0,0,0,0,0,0,1,2,2,2,2,2,4,5,5,5,6,7,7,7,7,7,7,7
"366-Medford-Grants Pass, OR",366,"Medford-Grants Pass, OR",-123.5561938,42.3665549,0,0,0,0,0,0,0,0,0,0,0,0,0,0,0,0,0,0,0,0,0,0,0,0,0,0,0,0,0,0,0,0,0,0,0,0,0,0,0,0,0,0,0,0,0,0,0,0,0,0,0,0,0,0,0,0,0,0,0,1,1,1,1,2,4,4,5,6,10,10,10,12,12,12,13,13,16,16,16,16,17,18
"368-Memphis-Forrest City, TN-MS-AR",368,"Memphis-Forrest City, TN-MS-AR",-89.73694895,35.501942,0,0,0,0,0,0,0,0,0,0,0,0,0,0,0,0,0,0,0,0,0,0,0,0,0,0,0,0,0,0,0,0,0,0,0,0,0,0,0,0,0,0,0,0,0,0,0,0,0,0,0,0,0,0,0,0,0,0,0,2,5,6,6,6,8,10,11,15,15,21,22,24,28,31,33,36,38,38,39,43,44,49
"370-Miami-Port St. Lucie-Fort Lauderdale, FL",370,"Miami-Port St. Lucie-Fort Lauderdale, FL",-80.47106649,27.37763908,0,0,0,0,0,0,0,0,0,0,0,0,0,0,0,0,0,0,0,0,0,0,0,0,0,0,0,0,0,0,0,0,0,0,0,0,0,0,0,0,0,0,0,0,0,0,0,0,0,0,0,0,0,0,0,0,0,0,0,1,3,5,6,8,10,14,21,23,29,38,40,48,60,76,82,100,118,130,132,144,148,152
"372-Midland-Odessa, TX",372,"Midland-Odessa, TX",-102.0315682,31.86904128,0,0,0,0,0,0,0,0,0,0,0,0,0,0,0,0,0,0,0,0,0,0,0,0,0,0,0,0,0,0,0,0,0,0,0,0,0,0,0,0,0,0,0,0,0,0,0,0,0,0,0,0,0,0,0,0,0,0,1,1,1,1,3,4,6,7,11,12,13,16,16,16,22,22,24,24,27,30,31,31,31,32
"376-Milwaukee-Racine-Waukesha, WI",376,"Milwaukee-Racine-Waukesha, WI",-88.30431188,43.01833055000001,0,0,0,0,0,0,0,0,0,0,0,0,0,0,0,0,0,0,0,0,0,0,0,0,0,0,0,0,0,0,0,0,0,0,0,0,0,0,0,0,0,0,0,0,0,0,0,0,0,0,1,1,3,3,3,4,5,12,15,20,30,31,31,42,56,61,72,83,93,101,107,120,141,141,154,160,166,166,184,193,201,209
"378-Minneapolis-St. Paul, MN-WI",378,"Minneapolis-St. Paul, MN-WI",-92.45000068,45.03437474,0,0,0,0,0,0,0,0,0,0,0,0,0,0,0,0,0,0,0,0,0,0,0,0,0,0,0,0,0,0,0,0,0,0,0,0,0,0,0,0,0,0,0,0,0,0,0,0,0,0,0,0,0,0,0,0,0,1,2,2,2,3,4,4,4,4,4,4,4,5,6,6,7,7,7,7,7,7,7,7,8,9
"380-Mobile-Daphne-Fairhope, AL",380,"Mobile-Daphne-Fairhope, AL",-88.20689943999999,31.4092794,0,0,0,0,0,0,0,0,0,0,0,0,0,0,0,0,0,0,0,0,0,0,0,0,0,0,0,0,0,0,0,0,0,0,0,0,0,0,0,0,0,0,0,0,0,0,0,0,0,0,0,0,0,0,0,0,0,0,1,1,1,1,1,1,2,2,2,4,4,3,3,3,5,5,5,5,7,7,11,11,12,12
"384-Monroe-Ruston, LA",384,"Monroe-Ruston, LA",-92.3749373,32.83121059,0,0,0,0,0,0,0,0,0,0,0,0,0,0,0,0,0,0,0,0,0,0,0,0,0,0,0,0,0,0,0,0,0,0,0,0,0,0,0,0,0,0,0,0,0,0,0,0,0,0,0,0,0,0,0,0,0,0,0,0,0,0,0,2,2,4,7,9,9,9,11,13,17,19,19,26,33,35,39,41,45,47
"388-Montgomery-Selma-Alexander City, AL",388,"Montgomery-Selma-Alexander City, AL",-85.79833053,32.86698258,0,0,0,0,0,0,0,0,0,0,0,0,0,0,0,0,0,0,0,0,0,0,0,0,0,0,0,0,0,0,0,0,0,0,0,0,0,0,0,0,0,0,0,0,0,0,0,0,0,0,0,0,0,0,0,0,0,0,0,0,0,1,2,4,4,4,5,8,8,12,13,17,19,20,29,30,33,35,45,53,61,98
"390-Morgantown-Fairmont, WV",390,"Morgantown-Fairmont, WV",-79.66712803,39.46770987,0,0,0,0,0,0,0,0,0,0,0,0,0,0,0,0,0,0,0,0,0,0,0,0,0,0,0,0,0,0,0,0,0,0,0,0,0,0,0,0,0,0,0,0,0,0,0,0,0,0,0,0,0,0,0,0,0,0,0,0,0,0,0,1,2,1,1,1,2,3,3,3,4,5,5,4,6,6,6,6,6,6
"393-Moses Lake-Othello, WA",393,"Moses Lake-Othello, WA",-119.4500749,47.20753737,0,0,0,0,0,0,0,0,0,0,0,0,0,0,0,0,0,0,0,0,0,0,0,0,0,0,0,0,0,0,0,0,0,0,0,0,0,0,0,0,0,0,0,1,1,1,1,1,1,1,1,1,2,2,3,7,8,8,8,11,18,23,23,27,33,39,44,50,59,63,63,73,75,77,80,88,88,94,95,101,110,114
"394-Mount Pleasant-Alma, MI",394,"Mount Pleasant-Alma, MI",-84.84664923,43.64060976,0,0,0,0,0,0,0,0,0,0,0,0,0,0,0,0,0,0,0,0,0,0,0,0,0,0,0,0,0,0,0,0,0,0,0,0,0,0,0,0,0,0,0,0,0,0,0,0,0,0,0,0,0,0,0,0,0,0,0,0,0,0,2,2,3,4,4,4,5,6,7,8,9,10,12,16,22,22,28,37,38,39
"396-Myrtle Beach-Conway, SC-NC",396,"Myrtle Beach-Conway, SC-NC",-78.99555293,33.9212828,0,0,0,0,0,0,0,0,0,0,0,0,0,0,0,0,0,0,0,0,0,0,0,0,0,0,0,0,0,0,0,0,0,0,0,0,0,0,0,0,0,0,0,0,0,0,0,0,0,0,0,0,0,0,3,4,5,6,8,9,11,16,19,20,20,24,28,31,32,37,42,50,51,63,64,76,91,91,106,124,132,134
"400-Nashville-Davidson--Murfreesboro, TN",400,"Nashville-Davidson--Murfreesboro, TN",-86.29775884,36.15496772,0,0,0,0,0,0,0,0,0,0,0,0,0,0,0,0,0,0,0,0,0,0,0,0,0,0,0,0,0,0,0,0,0,0,0,0,0,0,0,0,0,0,0,0,0,0,0,0,0,0,0,0,0,0,0,0,0,0,1,3,2,6,7,10,13,20,20,27,27,39,45,62,71,82,93,97,113,117,123,129,135,135
"404-New Bern-Morehead City, NC",404,"New Bern-Morehead City, NC",-76.66559823,35.15253315,0,0,0,0,0,0,0,0,0,0,0,0,0,0,0,0,0,0,0,0,0,0,0,0,0,0,0,0,0,0,0,0,0,0,0,0,0,0,0,0,0,0,0,0,0,0,0,0,0,0,0,0,0,0,0,0,0,0,0,0,0,0,0,0,0,0,0,0,1,1,1,2,3,3,3,3,3,3,3,4,5,6
"406-New Orleans-Metairie-Hammond, LA-MS",406,"New Orleans-Metairie-Hammond, LA-MS",-89.58677275,30.770909350000004,0,0,0,0,0,0,0,0,0,0,0,0,0,0,0,0,0,0,0,0,0,0,0,0,0,0,0,0,0,0,0,0,0,0,0,0,0,0,0,0,0,0,0,0,0,0,0,0,0,0,0,0,1,1,2,2,4,7,7,7,10,12,13,13,16,18,23,27,27,30,32,36,41,43,49,52,56,60,73,77,82,83
"408-New York-Newark, NY-NJ-CT-PA",408,"New York-Newark, NY-NJ-CT-PA",-75.03208106,41.33155042,0,0,0,0,0,0,0,0,0,0,0,0,0,0,0,0,0,0,0,0,0,0,0,0,0,0,0,0,0,0,0,0,0,0,0,0,0,0,0,0,0,0,0,0,0,0,0,0,0,0,1,1,1,1,1,1,2,3,3,3,3,3,4,8,15,23,27,33,39,48,57,68,83,97,114,125,136,148,163,190,208,212
"412-North Port-Sarasota, FL",412,"North Port-Sarasota, FL",-82.33174248,27.18546175,0,0,0,0,0,0,0,0,0,0,0,0,0,0,0,0,0,0,0,0,0,0,0,0,0,0,0,0,0,0,0,0,0,0,0,0,0,0,0,0,0,0,0,0,0,0,0,0,0,0,0,2,1,1,1,2,5,6,8,14,15,21,26,27,34,40,48,50,61,76,82,110,124,129,140,151,172,180,190,208,219,226
"416-Oklahoma City-Shawnee, OK",416,"Oklahoma City-Shawnee, OK",-96.94923008,35.20614018,0,0,0,0,0,0,0,0,0,0,0,0,0,0,0,0,0,0,0,0,0,0,0,0,0,0,0,0,0,0,0,0,0,0,0,0,0,0,0,0,0,0,0,0,0,0,0,0,0,0,0,0,0,0,0,0,0,0,0,0,0,0,0,1,2,2,2,2,2,5,6,9,11,11,12,13,19,20,24,25,25,26
"420-Omaha-Council Bluffs-Fremont, NE-IA",420,"Omaha-Council Bluffs-Fremont, NE-IA",-96.22019892,41.52815707,0,0,0,0,0,0,0,0,0,0,0,0,0,0,0,0,0,0,0,0,0,0,0,0,0,0,0,0,0,0,0,0,0,0,0,0,0,0,0,0,0,0,0,0,0,0,0,0,0,0,0,0,0,0,0,0,0,0,0,0,0,0,3,3,4,5,5,5,9,19,19,19,19,19,20,19,20,20,20,20,20,20
"422-Orlando-Lakeland-Deltona, FL",422,"Orlando-Lakeland-Deltona, FL",-81.18263252,29.05858895,0,0,0,0,0,0,0,0,0,0,0,0,0,0,0,0,0,0,0,0,0,0,0,0,0,0,0,0,0,0,0,0,0,0,0,0,0,0,0,0,0,0,0,0,0,0,1,1,2,2,2,3,4,5,5,9,9,9,10,11,14,16,18,20,29,39,44,47,65,80,80,102,125,134,151,151,162,163,179,187,195,201
"424-Paducah-Mayfield, KY-IL",424,"Paducah-Mayfield, KY-IL",-88.70445755,37.05350953,0,0,0,0,0,0,0,0,0,0,0,0,0,0,0,0,0,0,0,0,0,0,0,0,0,0,0,0,0,0,0,0,0,0,0,0,0,0,0,0,0,0,0,0,0,0,0,0,0,0,0,0,0,0,0,0,0,0,0,0,0,0,1,2,2,2,2,3,5,8,8,8,8,10,13,13,13,13,16,16,16,21
"425-Parkersburg-Marietta-Vienna, WV-OH",425,"Parkersburg-Marietta-Vienna, WV-OH",-81.5162836,39.20967886,0,0,0,0,0,0,0,0,0,0,0,0,0,0,0,0,0,0,0,0,0,0,0,0,0,0,0,0,0,0,0,0,0,0,0,0,0,0,0,0,0,0,0,0,0,0,0,0,0,0,0,0,0,0,0,0,0,0,0,0,0,0,0,1,1,2,2,2,2,2,2,3,5,7,10,11,13,14,14,18,18,18
"426-Pensacola-Ferry Pass, FL-AL",426,"Pensacola-Ferry Pass, FL-AL",-87.02458128000002,30.69341450000001,0,0,0,0,0,0,0,0,0,0,0,0,0,0,0,0,0,0,0,0,0,0,0,0,0,0,0,0,0,0,0,0,0,0,0,0,0,0,0,0,0,0,0,1,1,1,1,1,1,1,1,1,1,1,1,1,0,2,3,3,4,4,4,7,9,11,14,20,30,44,44,47,48,50,55,58,65,69,71,103,105,109
"428-Philadelphia-Reading-Camden, PA-NJ-DE-MD",428,"Philadelphia-Reading-Camden, PA-NJ-DE-MD",-75.1379271,40.00338507,0,0,0,0,0,0,0,0,0,0,0,0,0,0,0,0,0,0,0,0,0,0,0,0,0,0,0,0,0,0,0,0,0,0,0,0,0,0,0,0,0,0,0,0,0,0,0,0,1,1,1,3,4,4,10,19,34,44,67,85,96,175,252,342,475,637,803,890,1072,1315,1675,2100,2430,3008,3189,3728,4272,4777,5029,5521,6022,6386
"429-Phoenix-Mesa, AZ",429,"Phoenix-Mesa, AZ",-111.3449483,32.90525627,0,0,0,0,0,0,0,0,0,0,0,0,0,0,0,0,0,0,0,0,0,0,0,0,0,0,0,0,0,0,0,0,0,0,0,0,0,0,0,0,0,0,0,0,0,2,2,2,3,5,5,5,5,5,5,5,8,10,10,14,16,17,22,23,35,36,41,51,64,62,65,69,77,89,103,106,120,124,137,138,146,163
"430-Pittsburgh-New Castle-Weirton, PA-OH-WV",430,"Pittsburgh-New Castle-Weirton, PA-OH-WV",-80.57461608000001,40.51943859,0,0,0,0,0,0,0,0,0,0,0,0,0,0,0,0,0,0,0,0,0,0,0,0,0,0,0,0,0,0,0,0,0,0,0,0,0,0,0,0,0,0,0,0,0,0,0,0,0,0,0,0,0,0,0,0,0,0,0,0,0,0,0,0,1,0,1,3,3,3,6,5,5,6,6,6,7,7,7,7,7,7
"438-Portland-Lewiston-South Portland, ME",438,"Portland-Lewiston-South Portland, ME",-70.71052375,43.47808377,0,0,0,0,0,0,0,0,0,0,0,0,0,0,0,0,0,0,0,0,0,0,0,0,0,0,0,0,0,0,0,0,0,0,0,0,0,0,0,0,0,0,0,0,0,0,0,0,0,0,0,0,0,0,0,1,2,2,5,8,8,12,16,23,27,33,38,47,53,59,59,74,89,95,101,108,115,121,132,137,143,144
"440-Portland-Vancouver-Salem, OR-WA",440,"Portland-Vancouver-Salem, OR-WA",-121.91644030000002,46.02408726000001,0,0,0,0,0,0,0,0,0,0,0,0,0,0,0,0,0,0,0,0,0,0,0,0,0,0,0,0,0,0,0,0,0,0,0,0,0,0,0,0,0,0,0,0,0,0,0,0,0,0,0,0,0,0,0,0,0,0,0,0,0,0,0,0,0,0,1,1,1,1,1,1,1,1,2,2,2,2,2,2,3,3
"444-Pueblo-Cañon City, CO",444,"Pueblo-Cañon City, CO",-104.5127437,38.17359144,0,0,0,0,0,0,0,0,0,0,0,0,0,0,0,0,0,0,0,0,0,0,0,0,0,0,0,0,0,0,0,0,0,0,0,0,0,0,0,0,0,0,0,0,0,0,0,0,0,0,0,1,1,1,1,1,1,2,2,3,3,3,3,3,3,3,6,10,10,21,21,22,26,31,40,42,44,45,45,48,50,58
"446-Pullman-Moscow, WA-ID",446,"Pullman-Moscow, WA-ID",-117.52417629999998,46.90022523,0,0,0,0,0,0,0,0,0,0,0,0,0,0,0,0,0,0,0,0,0,0,0,0,0,0,0,0,0,0,0,0,0,0,0,0,0,0,0,0,0,0,0,0,0,0,0,0,0,0,0,0,0,0,0,0,0,0,0,0,1,2,2,2,3,5,6,6,8,8,10,11,11,11,11,12,12,12,12,12,12,12
"448-Quincy-Hannibal, IL-MO",448,"Quincy-Hannibal, IL-MO",-91.51838643,39.52817427,0,0,0,0,0,0,0,0,0,0,0,0,0,0,0,0,0,0,0,0,0,0,0,0,0,0,0,0,0,0,0,0,0,0,0,0,0,0,0,0,0,0,0,0,0,0,0,0,0,0,0,0,0,0,0,0,0,0,0,0,0,0,0,1,1,1,1,1,1,1,1,1,1,1,1,1,1,1,1,1,1,1
"450-Raleigh-Durham-Cary, NC",450,"Raleigh-Durham-Cary, NC",-78.65249174,35.78879266,0,0,0,0,0,0,0,0,0,0,0,0,0,0,0,0,0,0,0,0,0,0,0,0,0,0,0,0,0,0,0,0,0,0,0,0,0,0,0,0,0,1,1,1,1,1,1,1,6,6,7,8,11,14,15,15,22,25,32,32,52,52,66,73,100,123,123,146,166,193,213,251,275,283,304,314,351,365,385,391,424,470
"452-Rapid City-Spearfish, SD",452,"Rapid City-Spearfish, SD",-102.8240777,44.0025835,0,0,0,0,0,0,0,0,0,0,0,0,0,0,0,0,0,0,0,0,0,0,0,0,0,0,0,0,0,0,0,0,0,0,0,0,0,0,0,0,0,0,0,0,0,0,0,0,0,1,1,1,1,1,1,1,1,1,1,1,1,1,1,1,1,3,3,4,5,5,5,6,6,6,6,6,6,6,7,8,8,8
"454-Redding-Red Bluff, CA",454,"Redding-Red Bluff, CA",-122.2370171,40.12570935,0,0,0,0,0,0,0,0,0,0,0,0,0,0,0,0,0,0,0,0,0,0,0,0,0,0,0,0,0,0,0,0,0,0,0,0,0,0,0,0,0,0,0,0,0,0,0,0,0,0,0,0,0,0,0,0,0,0,0,0,0,0,0,0,0,0,0,0,0,0,0,0,0,1,1,1,1,1,1,1,1,1
"456-Reno-Carson City-Fernley, NV",456,"Reno-Carson City-Fernley, NV",-119.7480219,39.15509045,0,0,0,0,0,0,0,0,0,0,0,0,0,0,0,0,0,0,0,0,0,0,0,0,0,0,0,0,0,0,0,0,0,0,0,0,0,0,0,0,0,0,0,0,0,0,0,0,0,0,0,0,0,0,1,1,1,1,2,2,2,3,2,2,2,2,5,5,5,5,5,5,5,10,10,11,11,13,14,15,16,16
"458-Richmond-Connersville, IN",458,"Richmond-Connersville, IN",-85.01044989,39.8633444,0,0,0,0,0,0,0,0,0,0,0,0,0,0,0,0,0,0,0,0,0,0,0,0,0,0,0,0,0,0,0,0,0,0,0,0,0,0,0,0,0,0,0,0,0,0,0,0,0,0,0,0,0,0,0,0,0,1,1,1,1,1,0,0,1,1,1,1,1,2,3,3,6,6,8,10,13,16,16,16,17,17
"462-Rochester-Austin, MN",462,"Rochester-Austin, MN",-92.23121312,44.28424356,0,0,0,0,0,0,0,0,0,0,0,0,0,0,0,0,0,0,0,0,0,0,0,0,0,0,0,0,0,0,0,0,0,0,0,0,0,0,0,0,0,0,0,0,0,0,0,0,0,0,0,0,0,0,0,0,0,0,0,1,1,1,1,3,4,4,4,4,6,6,6,6,6,6,6,6,6,6,6,6,6,6
"464-Rochester-Batavia-Seneca Falls, NY",464,"Rochester-Batavia-Seneca Falls, NY",-77.10369919,42.63505484,0,0,0,0,0,0,0,0,0,0,0,0,0,0,0,0,0,0,0,0,0,0,0,0,0,0,0,0,0,0,0,0,0,0,0,0,0,0,0,0,0,0,0,0,0,0,0,0,0,0,0,0,0,0,0,0,0,0,0,0,0,0,0,0,0,0,0,0,0,0,0,1,1,1,1,1,1,1,1,2,2,2
"466-Rockford-Freeport-Rochelle, IL",466,"Rockford-Freeport-Rochelle, IL",-89.16085326999999,42.33641854,0,0,0,0,0,0,0,0,0,0,0,0,0,0,0,0,0,0,0,0,0,0,0,0,0,0,0,0,0,0,0,0,0,0,0,0,0,0,0,0,0,0,0,0,0,0,0,0,0,0,0,0,0,0,0,1,1,1,1,4,4,5,5,7,7,8,9,12,13,15,18,24,28,36,42,49,49,63,63,77,80,94
"468-Rocky Mount-Wilson-Roanoke Rapids, NC",468,"Rocky Mount-Wilson-Roanoke Rapids, NC",-77.917978,35.70625477,0,0,0,0,0,0,0,0,0,0,0,0,0,0,0,0,0,0,0,0,0,0,0,0,0,0,0,0,0,0,0,0,0,0,0,0,0,0,0,0,0,0,0,0,0,0,0,0,0,0,0,0,0,0,1,1,1,1,2,2,3,4,4,6,7,7,7,10,13,13,15,17,21,28,28,29,36,38,42,47,58,64
"472-Sacramento-Roseville, CA",472,"Sacramento-Roseville, CA",-121.3535644,39.26255932,0,0,0,0,0,0,0,0,0,0,0,0,0,0,0,0,0,0,0,0,0,0,0,0,0,0,0,0,0,0,0,0,0,0,0,0,0,0,0,0,0,0,0,0,0,0,0,0,0,0,0,0,0,0,0,0,0,0,0,0,2,3,3,0,3,3,3,3,4,6,7,8,8,9,9,11,11,13,15,15,15,15
"474-Saginaw-Midland-Bay City, MI",474,"Saginaw-Midland-Bay City, MI",-84.05131209999998,43.33433923,0,0,0,0,0,0,0,0,0,0,0,0,0,0,0,0,0,0,0,0,0,0,0,0,0,0,0,0,0,0,0,0,0,0,0,0,0,0,0,0,0,0,0,0,0,0,0,0,0,0,0,0,0,0,0,0,0,0,0,1,2,2,8,9,10,14,19,24,36,51,71,82,90,103,118,139,153,186,205,240,254,274
"476-St. Louis-St. Charles-Farmington, MO-IL",476,"St. Louis-St. Charles-Farmington, MO-IL",-90.24349225,38.63555736,0,0,0,0,0,0,0,0,0,0,0,0,0,0,0,0,0,0,0,0,0,0,0,0,0,0,0,0,0,0,0,0,0,0,0,0,0,0,0,0,0,0,0,0,0,0,0,0,0,0,0,0,0,0,0,1,2,2,5,7,10,15,23,44,69,72,95,102,102,150,195,239,239,297,328,358,440,476,514,565,594,645
"480-Salisbury-Cambridge, MD-DE",480,"Salisbury-Cambridge, MD-DE",-75.33200012,38.21274277,0,0,0,0,0,0,0,0,0,0,0,0,0,0,0,0,0,0,0,0,0,0,0,0,0,0,0,0,0,0,0,0,0,0,0,0,0,0,0,0,0,0,0,0,0,0,0,0,0,0,0,0,0,0,0,0,0,0,1,1,2,2,2,2,2,2,2,2,3,3,4,5,5,7,9,10,10,10,16,16,19,20
"482-Salt Lake City-Provo-Orem, UT",482,"Salt Lake City-Provo-Orem, UT",-111.9145117,41.27116049,0,0,0,0,0,0,0,0,0,0,0,0,0,0,0,0,0,0,0,0,0,0,0,0,0,0,0,0,0,0,0,0,0,0,0,0,0,0,0,0,0,0,0,0,0,0,0,0,1,1,1,1,1,0,2,4,0,0,0,0,0,8,9,10,14,20,29,37,39,41,41,53,58,63,67,71,75,77,77,90,93,96
"484-San Antonio-New Braunfels-Pearsall, TX",484,"San Antonio-New Braunfels-Pearsall, TX",-98.08693082,29.173259799999997,0,0,0,0,0,0,0,0,0,0,0,0,0,0,0,0,0,0,0,0,0,0,0,0,0,0,0,0,0,0,0,0,0,0,0,0,0,0,0,0,0,0,0,0,0,0,0,0,0,0,0,0,0,0,0,0,0,0,0,0,0,0,0,1,1,1,2,2,2,3,3,5,6,6,6,6,7,8,9,10,10,11
"488-San Jose-San Francisco-Oakland, CA",488,"San Jose-San Francisco-Oakland, CA",-120.9970722,37.55862499,0,0,0,0,0,0,0,0,0,0,0,0,0,0,0,0,0,0,0,0,0,0,0,0,0,0,0,0,0,0,0,0,0,0,0,0,0,0,0,0,0,0,0,0,0,0,0,0,0,2,2,2,2,2,3,3,5,5,5,5,5,8,11,12,13,17,23,29,31,33,39,44,51,58,65,71,81,90,95,103,116,121
"496-Savannah-Hinesville-Statesboro, GA",496,"Savannah-Hinesville-Statesboro, GA",-81.91894878,31.5521809,0,0,0,0,0,0,0,0,0,0,0,0,0,0,0,0,0,0,0,0,0,0,0,0,0,0,0,0,0,0,0,0,0,0,0,0,0,0,0,0,0,0,0,0,0,0,0,0,0,0,0,0,0,0,0,0,0,0,0,0,0,0,0,0,0,0,0,0,0,0,0,0,0,0,1,2,3,4,3,3,4,4
"497-Scottsboro-Fort Payne, AL",497,"Scottsboro-Fort Payne, AL",-85.99750489,34.78144169,0,0,0,0,0,0,0,0,0,0,0,0,0,0,0,0,0,0,0,0,0,0,0,0,0,0,0,0,0,0,0,0,0,0,0,0,0,0,0,0,0,0,0,0,0,0,0,0,0,0,0,0,0,0,0,0,0,0,1,1,1,1,2,2,4,4,5,5,5,8,8,9,12,12,14,17,18,19,22,22,22,24
"500-Seattle-Tacoma, WA",500,"Seattle-Tacoma, WA",-122.8290656,46.9291895,0,0,0,0,0,0,0,0,0,0,0,0,0,0,0,0,0,0,0,0,0,0,0,0,0,0,0,0,0,0,0,0,0,0,0,0,0,0,0,0,0,0,0,0,0,0,0,0,0,1,1,1,3,3,4,5,6,6,8,9,11,11,11,14,24,24,27,33,36,48,48,51,58,64,67,67,74,74,77,81,81,81
"508-Shreveport-Bossier City-Minden, LA",508,"Shreveport-Bossier City-Minden, LA",-93.33121835,32.70847669,0,0,0,0,0,0,0,0,0,0,0,0,0,0,0,0,0,0,0,0,0,0,0,0,0,0,0,0,0,0,0,0,0,0,0,0,0,0,0,0,0,0,0,0,0,0,0,0,0,0,0,0,0,0,0,0,0,0,1,1,1,3,3,5,8,9,9,9,11,17,17,19,23,42,49,51,50,51,55,57,60,62
"515-South Bend-Elkhart-Mishawaka, IN-MI",515,"South Bend-Elkhart-Mishawaka, IN-MI",-85.99405727,41.91522292,0,0,0,0,0,0,0,0,0,0,0,0,0,0,0,0,0,0,0,0,0,0,0,0,0,0,0,0,0,0,0,0,0,0,0,0,0,0,0,0,0,0,0,0,0,0,0,0,0,0,0,0,0,0,0,0,0,0,0,0,0,0,0,0,1,1,2,4,4,4,6,6,6,6,7,7,9,9,10,12,12,11
"517-Spencer-Spirit Lake, IA",517,"Spencer-Spirit Lake, IA",-95.1510206,43.37787725,0,0,0,0,0,0,0,0,0,0,0,0,0,0,0,0,0,0,0,0,0,0,0,0,0,0,0,0,0,0,0,0,0,0,0,0,0,0,0,0,0,0,0,0,0,0,0,0,0,0,0,0,0,0,0,0,0,0,0,0,0,0,0,0,0,1,1,1,1,1,1,1,1,1,1,1,1,1,1,1,1,1
"518-Spokane-Spokane Valley-Coeur d'Alene, WA-ID",518,"Spokane-Spokane Valley-Coeur d'Alene, WA-ID",-117.8542701,48.40035475,0,0,0,0,0,0,0,0,0,0,0,0,0,0,0,0,0,0,0,0,0,0,0,0,0,0,0,0,0,0,0,0,0,0,0,0,0,0,0,0,0,0,0,0,0,0,0,0,0,0,0,0,0,0,0,0,0,0,0,1,1,1,1,1,2,2,3,3,3,4,4,5,5,5,5,5,5,5,6,6,6,7
"522-Springfield-Jacksonville-Lincoln, IL",522,"Springfield-Jacksonville-Lincoln, IL",-89.65872023,39.75836914,0,0,0,0,0,0,0,0,0,0,0,0,0,0,0,0,0,0,0,0,0,0,0,0,0,0,0,0,0,0,0,0,0,0,0,0,0,0,0,0,0,0,0,0,0,0,0,0,0,0,0,0,0,2,2,4,3,4,4,4,4,4,5,5,5,7,8,9,12,14,17,18,20,25,29,31,31,33,33,42,43,43
"524-State College-DuBois, PA",524,"State College-DuBois, PA",-78.47592663,41.00110782,0,0,0,0,0,0,0,0,0,0,0,0,0,0,0,0,0,0,0,0,0,0,0,0,0,0,0,0,0,0,0,0,0,0,0,0,0,0,0,0,0,0,0,0,0,0,0,0,0,0,0,0,0,0,0,0,0,0,0,0,0,0,1,2,2,2,2,2,4,4,4,4,5,7,7,7,7,7,7,8,9,9
"525-Steamboat Springs-Craig, CO",525,"Steamboat Springs-Craig, CO",-106.9905548,40.48596505,0,0,0,0,0,0,0,0,0,0,0,0,0,0,0,0,0,0,0,0,0,0,0,0,0,0,0,0,0,0,0,0,0,0,0,0,0,0,0,0,0,0,0,0,0,0,0,0,0,0,0,1,1,1,1,1,2,2,2,2,3,3,3,4,9,9,12,16,16,17,17,19,23,28,29,29,32,32,32,32,35,36
"532-Syracuse-Auburn, NY",532,"Syracuse-Auburn, NY",-76.14635194,43.42778894,0,0,0,0,0,0,0,0,0,0,0,0,0,0,0,0,0,0,0,0,0,0,0,0,0,0,0,0,0,0,0,0,0,0,0,0,0,0,0,0,0,0,0,0,0,0,0,0,0,0,0,0,0,0,0,0,0,0,0,0,0,2,2,2,4,4,9,10,15,15,20,23,28,28,32,34,34,34,36,36,37,42
"534-Toledo-Findlay-Tiffin, OH",534,"Toledo-Findlay-Tiffin, OH",-83.62285108000002,41.36224827,0,0,0,0,0,0,0,0,0,0,0,0,0,0,0,0,0,0,0,0,0,0,0,0,0,0,0,0,0,0,0,0,0,0,0,0,0,0,0,0,0,0,0,0,0,0,0,0,0,0,0,0,0,0,0,0,0,0,0,0,1,2,2,3,6,8,10,12,13,15,15,18,20,23,29,34,38,41,42,49,52,54
"536-Tucson-Nogales, AZ",536,"Tucson-Nogales, AZ",-110.8479088,31.52508998,0,0,0,0,0,0,0,0,0,0,0,0,0,0,0,0,0,0,0,0,0,0,0,0,0,0,0,0,0,0,0,0,0,0,0,0,0,0,0,0,0,0,0,0,0,0,0,0,0,0,0,0,0,0,0,0,0,0,1,1,1,1,1,1,2,2,2,2,2,2,3,3,3,4,4,4,5,6,7,7,8,8
"538-Tulsa-Muskogee-Bartlesville, OK",538,"Tulsa-Muskogee-Bartlesville, OK",-95.90514104,36.71380786,0,0,0,0,0,0,0,0,0,0,0,0,0,0,0,0,0,0,0,0,0,0,0,0,0,0,0,0,0,0,0,0,0,0,0,0,0,0,0,0,0,0,0,0,0,0,0,0,0,0,0,0,0,0,0,0,0,1,1,1,2,2,2,3,5,9,14,18,20,21,23,24,28,33,35,39,43,45,54,57,83,104
"539-Tupelo-Corinth, MS",539,"Tupelo-Corinth, MS",-88.51986294,34.61810501,0,0,0,0,0,0,0,0,0,0,0,0,0,0,0,0,0,0,0,0,0,0,0,0,0,0,0,0,0,0,0,0,0,0,0,0,0,0,0,0,0,0,0,0,0,0,0,0,0,0,0,0,0,0,0,0,0,0,0,0,0,0,0,1,1,1,2,4,4,4,4,4,9,9,9,10,10,10,10,12,12,13
"540-Tyler-Jacksonville, TX",540,"Tyler-Jacksonville, TX",-95.2717568,32.37474036,0,0,0,0,0,0,0,0,0,0,0,0,0,0,0,0,0,0,0,0,0,0,0,0,0,0,0,0,0,0,0,0,0,0,0,0,0,0,0,0,0,0,0,0,0,0,0,0,0,0,0,3,3,4,4,4,5,5,5,6,10,10,14,16,21,27,27,31,32,36,37,42,53,57,57,62,75,79,82,88,93,96
"544-Victoria-Port Lavaca, TX",544,"Victoria-Port Lavaca, TX",-96.96813006,28.797809879999996,0,0,0,0,0,0,0,0,0,0,0,0,0,0,0,0,0,0,0,0,0,0,0,0,0,0,0,0,0,0,0,0,0,0,0,0,0,0,0,0,0,0,0,0,0,0,0,0,0,0,0,0,0,0,0,0,0,0,0,0,0,0,3,3,3,3,3,3,6,15,16,20,27,32,32,35,50,59,66,73,76,77
"545-Virginia Beach-Norfolk, VA-NC",545,"Virginia Beach-Norfolk, VA-NC",-76.70905141,37.28131268,0,0,0,0,0,0,0,0,0,0,0,0,0,0,0,0,0,0,0,0,0,0,0,0,0,0,0,0,0,0,0,0,0,0,0,0,0,0,0,0,0,0,0,0,0,0,0,0,0,0,0,0,0,0,0,1,1,1,4,4,5,5,5,5,5,5,6,7,7,8,9,9,9,10,12,13,14,16,16,17,17,17
"548-Washington-Baltimore-Arlington, DC-MD-VA-WV-PA",548,"Washington-Baltimore-Arlington, DC-MD-VA-WV-PA",-78.26311676,39.55439028,0,0,0,0,0,0,0,0,0,0,0,0,0,0,0,0,0,0,0,0,0,0,0,0,0,0,0,0,0,0,0,0,0,0,0,0,0,0,0,0,0,0,0,0,0,0,0,0,0,0,0,0,0,0,0,0,0,0,0,0,0,0,0,0,0,0,0,0,1,1,1,1,1,1,3,3,4,4,4,5,6,6
"554-Wausau-Stevens Point-Wisconsin Rapids, WI",554,"Wausau-Stevens Point-Wisconsin Rapids, WI",-90.04158336,44.45537896,0,0,0,0,0,0,0,0,0,0,0,0,0,0,0,0,0,0,0,0,0,0,0,0,0,0,0,0,0,0,0,0,0,0,0,0,0,0,0,0,0,0,0,0,0,0,0,0,0,0,0,0,0,0,1,1,1,1,1,1,1,1,1,1,1,2,2,2,2,2,2,2,2,2,2,2,2,2,2,2,2,2
"556-Wichita-Winfield, KS",556,"Wichita-Winfield, KS",-97.47721621,37.23682549,0,0,0,0,0,0,0,0,0,0,0,0,0,0,0,0,0,0,0,0,0,0,0,0,0,0,0,0,0,0,0,0,0,0,0,0,0,0,0,0,0,0,0,0,0,0,0,0,0,0,0,0,0,0,0,0,0,0,0,0,0,0,0,0,1,1,1,1,1,1,1,1,2,2,2,2,2,2,2,2,2,2
"558-Williamsport-Lock Haven, PA",558,"Williamsport-Lock Haven, PA",-77.06629984,41.34310539,0,0,0,0,0,0,0,0,0,0,0,0,0,0,0,0,0,0,0,0,0,0,0,0,0,0,0,0,0,0,0,0,0,0,0,0,0,0,0,0,0,0,0,0,0,0,0,0,0,0,0,0,0,0,0,0,0,0,0,0,0,0,0,1,1,2,2,3,4,6,7,7,8,10,9,10,12,15,17,18,20,23
"566-Youngstown-Warren, OH-PA",566,"Youngstown-Warren, OH-PA",-80.25816981,41.30248872,0,0,0,0,0,0,0,0,0,0,0,0,0,0,0,0,0,0,0,0,0,0,0,0,0,0,0,0,0,0,0,0,0,0,0,0,0,0,0,0,0,0,0,0,0,0,0,0,0,0,0,0,0,0,0,0,0,0,0,0,1,1,2,2,3,4,6,7,7,8,8,9,10,14,18,18,26,27,30,36,38,40
