Key,CSAFP,NAME,Longitude,Latitude,1/22/20,1/23/20,1/24/20,1/25/20,1/26/20,1/27/20,1/28/20,1/29/20,1/30/20,1/31/20,2/1/20,2/2/20,2/3/20,2/4/20,2/5/20,2/6/20,2/7/20,2/8/20,2/9/20,2/10/20,2/11/20,2/12/20,2/13/20,2/14/20,2/15/20,2/16/20,2/17/20,2/18/20,2/19/20,2/20/20,2/21/20,2/22/20,2/23/20,2/24/20,2/25/20,2/26/20,2/27/20,2/28/20,2/29/20,3/1/20,3/2/20,3/3/20,3/4/20,3/5/20,3/6/20,3/7/20,3/8/20,3/9/20,3/10/20,3/11/20,3/12/20,3/13/20,3/14/20,3/15/20,3/16/20,3/17/20,3/18/20,3/19/20,3/20/20,3/21/20,3/22/20,3/23/20,3/24/20,3/25/20,3/26/20,3/27/20,3/28/20,3/29/20,3/30/20,3/31/20,4/1/20,4/2/20,4/3/20,4/4/20,4/5/20,4/6/20,4/7/20,4/8/20,4/9/20,4/10/20,4/11/20
"104-Albany-Schenectady, NY",104,"Albany-Schenectady, NY",-73.90931835895924,42.77538677962706,0,0,0,0,0,0,0,0,0,0,0,0,0,0,0,0,0,0,0,0,0,0,0,0,0,0,0,0,0,0,0,0,0,0,0,0,0,0,0,0,0,0,0,0,0,2,2,2,2,2,5,6,11,11,25,41,72,80,122,189,234,238,304,336,388,429,478,503,533,549,598,644,697,744,804,836,886,914,1023,1113,1153
"106-Albuquerque-Santa Fe-Las Vegas, NM",106,"Albuquerque-Santa Fe-Las Vegas, NM",-106.63663171982634,35.27023364354559,0,0,0,0,0,0,0,0,0,0,0,0,0,0,0,0,0,0,0,0,0,0,0,0,0,0,0,0,0,0,0,0,0,0,0,0,0,0,0,0,0,0,0,0,0,0,0,0,0,1,3,8,11,11,19,20,25,32,37,48,48,58,65,76,76,90,142,158,158,213,213,241,330,334,433,462,524,524,561,685,691
"107-Altoona-Huntingdon, PA",107,"Altoona-Huntingdon, PA",-78.162953425,40.45062048,0,0,0,0,0,0,0,0,0,0,0,0,0,0,0,0,0,0,0,0,0,0,0,0,0,0,0,0,0,0,0,0,0,0,0,0,0,0,0,0,0,0,0,0,0,0,0,0,0,0,0,0,0,0,0,0,0,0,0,0,0,0,0,0,1,1,3,4,7,5,5,6,7,9,9,9,11,12,14,17,20
"108-Amarillo-Pampa-Borger, TX",108,"Amarillo-Pampa-Borger, TX",-101.80496635416665,35.22599605055556,0,0,0,0,0,0,0,0,0,0,0,0,0,0,0,0,0,0,0,0,0,0,0,0,0,0,0,0,0,0,0,0,0,0,0,0,0,0,0,0,0,0,0,0,0,0,0,0,0,0,0,0,0,0,0,0,0,2,3,3,3,5,6,6,6,8,8,13,13,20,35,36,46,57,83,89,91,103,127,132,144
"118-Appleton-Oshkosh-Neenah, WI",118,"Appleton-Oshkosh-Neenah, WI",-88.52576451017241,44.24320920913793,0,0,0,0,0,0,0,0,0,0,0,0,0,0,0,0,0,0,0,0,0,0,0,0,0,0,0,0,0,0,0,0,0,0,0,0,0,0,0,0,0,0,0,0,0,0,0,0,0,0,0,0,1,1,4,4,6,7,8,8,8,8,8,10,11,11,12,15,20,24,33,41,46,46,45,50,53,53,55,58,58
"120-Asheville-Marion-Brevard, NC",120,"Asheville-Marion-Brevard, NC",-82.46640805815383,35.45621020476923,0,0,0,0,0,0,0,0,0,0,0,0,0,0,0,0,0,0,0,0,0,0,0,0,0,0,0,0,0,0,0,0,0,0,0,0,0,0,0,0,0,0,0,0,0,0,0,0,0,0,0,0,0,0,0,0,1,1,1,2,5,11,17,18,25,27,34,40,41,52,53,59,68,72,98,102,103,110,114,119,130
"122-Atlanta--Athens-Clarke County--Sandy Springs, GA-AL",122,"Atlanta--Athens-Clarke County--Sandy Springs, GA-AL",-84.38008242896807,33.79934140983572,0,0,0,0,0,0,0,0,0,0,0,0,0,0,0,0,0,0,0,0,0,0,0,0,0,0,0,0,0,0,0,0,0,0,0,0,0,0,0,0,0,2,2,2,3,5,5,10,17,22,28,36,61,86,107,128,175,234,354,398,452,571,718,813,987,1312,1606,1780,1962,2549,2802,3134,3656,4004,4302,4697,5258,5691,5972,6380,6696
"140-Bend-Prineville, OR",140,"Bend-Prineville, OR",-121.21213104038462,43.92005941307692,0,0,0,0,0,0,0,0,0,0,0,0,0,0,0,0,0,0,0,0,0,0,0,0,0,0,0,0,0,0,0,0,0,0,0,0,0,0,0,0,0,0,0,0,0,0,0,0,0,1,1,1,3,3,4,6,6,6,8,9,10,10,10,10,15,18,20,23,25,24,27,32,37,37,40,40,41,45,51,51,52
"142-Birmingham-Hoover-Talladega, AL",142,"Birmingham-Hoover-Talladega, AL",-86.82960504626243,33.51477688248509,0,0,0,0,0,0,0,0,0,0,0,0,0,0,0,0,0,0,0,0,0,0,0,0,0,0,0,0,0,0,0,0,0,0,0,0,0,0,0,0,0,0,0,0,0,0,0,0,0,0,0,1,1,5,20,26,30,46,63,82,95,117,132,195,250,295,329,390,406,439,467,506,585,631,692,731,787,816,878,940,1006
"144-Bloomington-Bedford, IN",144,"Bloomington-Bedford, IN",-86.54410721211538,39.0493248075,0,0,0,0,0,0,0,0,0,0,0,0,0,0,0,0,0,0,0,0,0,0,0,0,0,0,0,0,0,0,0,0,0,0,0,0,0,0,0,0,0,0,0,0,0,0,0,0,0,0,0,0,0,0,0,0,0,2,1,2,2,2,6,9,12,18,28,39,45,50,56,60,75,94,102,102,115,132,134,147,156
"145-Bloomington-Pontiac, IL",145,"Bloomington-Pontiac, IL",-88.79815052833334,40.55695537833334,0,0,0,0,0,0,0,0,0,0,0,0,0,0,0,0,0,0,0,0,0,0,0,0,0,0,0,0,0,0,0,0,0,0,0,0,0,0,0,0,0,0,0,0,0,0,0,0,0,0,0,0,0,0,0,0,0,0,1,6,7,8,8,8,9,12,12,16,19,22,23,37,41,46,53,55,55,75,75,89,90
"146-Bloomsburg-Berwick-Sunbury, PA",146,"Bloomsburg-Berwick-Sunbury, PA",-76.60197342944163,40.98468650233503,0,0,0,0,0,0,0,0,0,0,0,0,0,0,0,0,0,0,0,0,0,0,0,0,0,0,0,0,0,0,0,0,0,0,0,0,0,0,0,0,0,0,0,0,0,0,0,0,0,0,0,0,0,0,0,0,0,0,0,1,2,2,4,5,7,8,11,13,23,23,32,39,46,59,87,92,117,130,146,171,197
"147-Boise City-Mountain Home-Ontario, ID-OR",147,"Boise City-Mountain Home-Ontario, ID-OR",-116.3327830681492,43.49356741431851,0,0,0,0,0,0,0,0,0,0,0,0,0,0,0,0,0,0,0,0,0,0,0,0,0,0,0,0,0,0,0,0,0,0,0,0,0,0,0,0,0,0,0,0,0,0,0,0,0,0,0,0,1,2,2,3,3,3,9,12,12,16,24,29,53,81,101,117,158,251,259,392,410,475,511,531,553,584,600,672,697
"148-Boston-Worcester-Providence, MA-RI-NH-CT",148,"Boston-Worcester-Providence, MA-RI-NH-CT",-71.22119836322933,42.30110019650265,0,0,0,0,0,0,0,0,0,0,1,1,1,1,1,1,1,1,1,1,1,1,1,1,1,1,1,1,1,1,1,1,1,1,1,1,1,1,1,2,3,4,4,4,8,9,25,25,40,92,104,120,153,153,207,243,291,362,446,561,696,828,1168,1716,2227,2949,3806,4475,5203,6242,7393,8738,10075,11306,12273,13587,14957,16792,18763,20850,22946
"150-Bowling Green-Glasgow, KY",150,"Bowling Green-Glasgow, KY",-86.38089521142858,37.01934935142857,0,0,0,0,0,0,0,0,0,0,0,0,0,0,0,0,0,0,0,0,0,0,0,0,0,0,0,0,0,0,0,0,0,0,0,0,0,0,0,0,0,0,0,0,0,0,0,0,0,0,0,0,0,0,0,0,0,0,2,2,2,4,4,6,6,6,6,12,15,19,19,19,19,27,29,29,30,30,35,35,35
"154-Brownsville-Harlingen-Raymondville, TX",154,"Brownsville-Harlingen-Raymondville, TX",-97.48548770658537,26.155268888658533,0,0,0,0,0,0,0,0,0,0,0,0,0,0,0,0,0,0,0,0,0,0,0,0,0,0,0,0,0,0,0,0,0,0,0,0,0,0,0,0,0,0,0,0,0,0,0,0,0,0,0,0,0,0,0,0,2,0,1,2,6,6,6,7,10,14,14,21,22,28,28,40,58,67,82,92,106,115,123,152,164
"160-Buffalo-Cheektowaga-Olean, NY",160,"Buffalo-Cheektowaga-Olean, NY",-78.73175074787235,42.79979190151891,0,0,0,0,0,0,0,0,0,0,0,0,0,0,0,0,0,0,0,0,0,0,0,0,0,0,0,0,0,0,0,0,0,0,0,0,0,0,0,0,0,0,0,0,0,0,0,0,0,0,0,0,3,3,7,11,20,32,51,59,65,96,124,134,220,268,352,456,490,546,635,716,837,918,1185,1280,1373,1505,1604,1672,1692
"161-Burlington-Fort Madison-Keokuk, IA-IL-MO",161,"Burlington-Fort Madison-Keokuk, IA-IL-MO",-91.32189729499999,40.70280668666667,0,0,0,0,0,0,0,0,0,0,0,0,0,0,0,0,0,0,0,0,0,0,0,0,0,0,0,0,0,0,0,0,0,0,0,0,0,0,0,0,0,0,0,0,0,0,0,0,0,0,0,0,0,0,0,0,0,0,0,0,0,0,0,1,1,1,1,1,1,1,2,1,1,3,3,3,5,6,6,6,6
"162-Burlington-South Burlington-Barre, VT",162,"Burlington-South Burlington-Barre, VT",-73.02701357471861,44.521957010108224,0,0,0,0,0,0,0,0,0,0,0,0,0,0,0,0,0,0,0,0,0,0,0,0,0,0,0,0,0,0,0,0,0,0,0,0,0,0,0,0,0,0,0,0,0,0,0,0,0,0,1,1,2,2,5,5,5,5,10,26,26,37,45,63,86,105,122,138,138,180,194,211,241,289,320,336,366,366,398,398,462
"163-Cape Coral-Fort Myers-Naples, FL",163,"Cape Coral-Fort Myers-Naples, FL",-81.67607047932204,26.411159719661015,0,0,0,0,0,0,0,0,0,0,0,0,0,0,0,0,0,0,0,0,0,0,0,0,0,0,0,0,0,0,0,0,0,0,0,0,0,0,0,0,0,0,0,0,0,2,2,2,2,5,6,7,7,10,10,11,23,29,39,45,59,69,73,89,121,157,193,220,286,356,366,457,512,575,617,652,714,749,799,879,944
"164-Cape Girardeau-Sikeston, MO-IL",164,"Cape Girardeau-Sikeston, MO-IL",-89.6700051497778,37.27850734888889,0,0,0,0,0,0,0,0,0,0,0,0,0,0,0,0,0,0,0,0,0,0,0,0,0,0,0,0,0,0,0,0,0,0,0,0,0,0,0,0,0,0,0,0,0,0,0,0,0,0,0,0,0,0,0,0,0,0,1,1,1,1,1,4,5,7,9,9,19,22,22,22,22,24,24,31,32,33,36,42,45
"168-Cedar Rapids-Iowa City, IA",168,"Cedar Rapids-Iowa City, IA",-91.61895704466166,41.820874221729326,0,0,0,0,0,0,0,0,0,0,0,0,0,0,0,0,0,0,0,0,0,0,0,0,0,0,0,0,0,0,0,0,0,0,0,0,0,0,0,0,0,0,0,0,0,0,0,3,7,12,13,14,14,14,15,15,22,23,23,32,39,44,47,58,71,94,112,124,167,198,215,231,256,294,331,362,394,424,474,503,532
"170-Charleston-Huntington-Ashland, WV-OH-KY",170,"Charleston-Huntington-Ashland, WV-OH-KY",-81.96444715457547,38.428091608207545,0,0,0,0,0,0,0,0,0,0,0,0,0,0,0,0,0,0,0,0,0,0,0,0,0,0,0,0,0,0,0,0,0,0,0,0,0,0,0,0,0,0,0,0,0,0,0,0,0,0,0,0,0,0,0,0,0,0,2,4,6,6,7,9,14,26,32,35,43,56,66,74,79,106,112,127,146,161,177,211,212
"172-Charlotte-Concord, NC-SC",172,"Charlotte-Concord, NC-SC",-80.82921330845237,35.24520193829762,0,0,0,0,0,0,0,0,0,0,0,0,0,0,0,0,0,0,0,0,0,0,0,0,0,0,0,0,0,0,0,0,0,0,0,0,0,0,0,0,0,0,0,0,0,0,0,0,0,1,3,3,5,7,11,17,22,42,62,99,116,148,208,256,314,390,460,529,600,672,720,857,971,1077,1112,1245,1364,1426,1486,1579,1680
"174-Chattanooga-Cleveland-Dalton, TN-GA",174,"Chattanooga-Cleveland-Dalton, TN-GA",-85.08607258416032,35.00621306335878,0,0,0,0,0,0,0,0,0,0,0,0,0,0,0,0,0,0,0,0,0,0,0,0,0,0,0,0,0,0,0,0,0,0,0,0,0,0,0,0,0,0,0,0,0,0,0,0,0,0,0,3,3,3,3,3,7,9,10,13,19,25,24,46,56,61,71,80,80,107,120,149,165,175,180,198,222,225,233,252,262
"176-Chicago-Naperville, IL-IN-WI",176,"Chicago-Naperville, IL-IN-WI",-87.8610820528261,41.83806472942376,0,0,1,1,1,1,1,1,1,2,2,2,2,2,2,2,2,2,2,2,2,2,2,2,2,2,2,2,2,2,2,2,2,2,2,2,2,2,2,3,4,4,4,5,5,6,7,7,12,25,32,46,60,60,76,154,262,402,404,727,1029,1201,1520,1841,1862,3006,3479,4558,4997,5961,6940,7645,8479,10256,11129,12110,12177,14836,14920,17532,18881
"178-Cincinnati-Wilmington-Maysville, OH-KY-IN",178,"Cincinnati-Wilmington-Maysville, OH-KY-IN",-84.54756185725414,39.218599806913346,0,0,0,0,0,0,0,0,0,0,0,0,0,0,0,0,0,0,0,0,0,0,0,0,0,0,0,0,0,0,0,0,0,0,0,0,0,0,0,0,0,0,0,0,0,0,0,0,0,0,0,0,4,4,6,8,10,12,24,31,50,63,86,101,119,141,175,209,234,286,332,383,428,557,609,705,765,818,921,990,1027
"184-Cleveland-Akron-Canton, OH",184,"Cleveland-Akron-Canton, OH",-81.61334427800183,41.30332455988085,0,0,0,0,0,0,0,0,0,0,0,0,0,0,0,0,0,0,0,0,0,0,0,0,0,0,0,0,0,0,0,0,0,0,0,0,0,0,0,0,0,0,0,0,0,0,0,0,3,4,4,9,17,18,36,48,60,80,109,147,203,249,293,356,444,575,665,793,911,982,1091,1246,1417,1499,1574,1682,1757,1870,1966,2058,2182
"185-Cleveland-Indianola, MS",185,"Cleveland-Indianola, MS",-90.7740081805,33.7287041395,0,0,0,0,0,0,0,0,0,0,0,0,0,0,0,0,0,0,0,0,0,0,0,0,0,0,0,0,0,0,0,0,0,0,0,0,0,0,0,0,0,0,0,0,0,0,0,0,0,0,0,0,0,0,0,0,2,2,2,2,5,6,7,7,10,14,18,21,21,33,37,39,45,52,64,70,79,81,89,95,100
"188-Clovis-Portales, NM",188,"Clovis-Portales, NM",-103.36019376999998,34.518887099,0,0,0,0,0,0,0,0,0,0,0,0,0,0,0,0,0,0,0,0,0,0,0,0,0,0,0,0,0,0,0,0,0,0,0,0,0,0,0,0,0,0,0,0,0,0,0,0,0,0,0,0,0,0,0,0,0,0,0,0,0,0,1,1,1,1,2,4,4,4,4,6,7,7,7,7,9,9,9,10,10
"190-Columbia-Moberly-Mexico, MO",190,"Columbia-Moberly-Mexico, MO",-92.3498058,39.026078147499994,0,0,0,0,0,0,0,0,0,0,0,0,0,0,0,0,0,0,0,0,0,0,0,0,0,0,0,0,0,0,0,0,0,0,0,0,0,0,0,0,0,0,0,0,0,0,0,0,0,0,0,0,0,0,0,1,1,3,8,10,15,17,21,24,39,39,51,56,61,68,70,73,73,84,84,85,87,87,88,90,92
"192-Columbia-Orangeburg-Newberry, SC",192,"Columbia-Orangeburg-Newberry, SC",-80.93788736557792,34.03976128766702,0,0,0,0,0,0,0,0,0,0,0,0,0,0,0,0,0,0,0,0,0,0,0,0,0,0,0,0,0,0,0,0,0,0,0,0,0,0,0,0,0,0,0,0,0,1,1,1,5,7,4,5,12,12,17,28,35,45,71,89,92,127,135,155,155,179,210,238,306,341,390,440,481,532,620,647,693,693,824,894,943
"194-Columbus-Auburn-Opelika, GA-AL",194,"Columbus-Auburn-Opelika, GA-AL",-85.11544917157772,32.547715621647335,0,0,0,0,0,0,0,0,0,0,0,0,0,0,0,0,0,0,0,0,0,0,0,0,0,0,0,0,0,0,0,0,0,0,0,0,0,0,0,0,0,0,0,0,0,0,0,0,0,0,0,0,0,0,1,3,8,11,13,14,18,21,30,46,54,58,67,71,89,103,110,127,146,153,169,185,219,253,347,400,431
"198-Columbus-Marion-Zanesville, OH",198,"Columbus-Marion-Zanesville, OH",-82.95628391299776,39.99445555340791,0,0,0,0,0,0,0,0,0,0,0,0,0,0,0,0,0,0,0,0,0,0,0,0,0,0,0,0,0,0,0,0,0,0,0,0,0,0,0,0,0,0,0,0,0,0,0,0,0,0,0,0,1,3,3,4,8,12,19,28,45,59,100,123,153,210,300,333,384,450,533,604,692,792,872,947,1025,1110,1193,1270,1341
"200-Columbus-West Point, MS",200,"Columbus-West Point, MS",-88.58834512692306,33.552202866923075,0,0,0,0,0,0,0,0,0,0,0,0,0,0,0,0,0,0,0,0,0,0,0,0,0,0,0,0,0,0,0,0,0,0,0,0,0,0,0,0,0,0,0,0,0,0,0,0,0,0,0,0,0,0,0,0,0,0,0,1,5,7,7,7,9,11,12,12,12,15,16,17,19,20,22,24,26,28,32,36,39
"204-Corpus Christi-Kingsville-Alice, TX",204,"Corpus Christi-Kingsville-Alice, TX",-97.54495263211766,27.759954271529413,0,0,0,0,0,0,0,0,0,0,0,0,0,0,0,0,0,0,0,0,0,0,0,0,0,0,0,0,0,0,0,0,0,0,0,0,0,0,0,0,0,0,0,0,0,0,0,0,0,0,0,0,0,0,0,0,0,0,0,1,1,1,6,11,16,20,24,25,27,37,37,45,46,55,63,66,73,78,82,85,85
"206-Dallas-Fort Worth, TX-OK",206,"Dallas-Fort Worth, TX-OK",-96.90289869629649,32.868838662339186,0,0,0,0,0,0,0,0,0,0,0,0,0,0,0,0,0,0,0,0,0,0,0,0,0,0,0,0,0,0,0,0,0,0,0,0,0,0,0,0,0,0,0,0,0,0,0,1,3,6,7,16,18,22,33,43,66,108,148,194,252,289,336,459,574,736,872,966,1140,1334,1484,1712,1916,2159,2249,2363,2585,2783,3061,3290,3467
"209-Davenport-Moline, IA-IL",209,"Davenport-Moline, IA-IL",-90.7018517222781,41.55480322289941,0,0,0,0,0,0,0,0,0,0,0,0,0,0,0,0,0,0,0,0,0,0,0,0,0,0,0,0,0,0,0,0,0,0,0,0,0,0,0,0,0,0,0,0,0,0,0,0,0,0,0,0,0,0,0,0,0,1,1,3,4,5,7,12,16,20,27,28,41,52,65,79,100,117,140,169,193,242,264,306,338
"212-Dayton-Springfield-Kettering, OH",212,"Dayton-Springfield-Kettering, OH",-84.24768792931033,39.923837349384236,0,0,0,0,0,0,0,0,0,0,0,0,0,0,0,0,0,0,0,0,0,0,0,0,0,0,0,0,0,0,0,0,0,0,0,0,0,0,0,0,0,0,0,0,0,0,0,0,0,0,0,0,0,0,0,1,2,4,5,14,21,27,36,40,43,60,69,86,105,122,147,158,179,199,230,278,321,350,367,380,406
"216-Denver-Aurora, CO",216,"Denver-Aurora, CO",-104.71874420972654,39.82991728895236,0,0,0,0,0,0,0,0,0,0,0,0,0,0,0,0,0,0,0,0,0,0,0,0,0,0,0,0,0,0,0,0,0,0,0,0,0,0,0,0,0,0,0,0,2,5,5,5,8,15,22,39,53,53,79,98,133,133,198,280,354,424,432,604,819,819,1000,1370,1370,1892,1892,2135,2405,2719,3246,3396,3615,3816,3816,4231,4534
"217-DeRidder-Fort Polk South, LA",217,"DeRidder-Fort Polk South, LA",-93.2870344790244,30.80560334243902,0,0,0,0,0,0,0,0,0,0,0,0,0,0,0,0,0,0,0,0,0,0,0,0,0,0,0,0,0,0,0,0,0,0,0,0,0,0,0,0,0,0,0,0,0,0,0,0,0,0,0,0,0,0,0,0,0,0,0,1,1,1,4,5,5,6,6,6,8,8,14,17,21,26,29,33,34,34,37,40,41
"218-Des Moines-Ames-West Des Moines, IA",218,"Des Moines-Ames-West Des Moines, IA",-93.61390341386178,41.66786921337398,0,0,0,0,0,0,0,0,0,0,0,0,0,0,0,0,0,0,0,0,0,0,0,0,0,0,0,0,0,0,0,0,0,0,0,0,0,0,0,0,0,0,0,0,0,0,0,0,0,0,0,0,0,1,3,3,8,11,11,16,17,19,26,31,37,44,64,77,94,116,128,142,161,171,189,193,199,207,217,227,246
"220-Detroit-Warren-Ann Arbor, MI",220,"Detroit-Warren-Ann Arbor, MI",-83.29285194394669,42.46793110039504,0,0,0,0,0,0,0,0,0,0,0,0,0,0,0,0,0,0,0,0,0,0,0,0,0,0,0,0,0,0,0,0,0,0,0,0,0,0,0,0,0,0,0,0,0,0,0,0,0,2,2,9,17,25,44,48,102,225,370,485,964,1230,1647,2112,2622,3365,4269,4990,5859,6856,8349,9661,11423,12719,13991,15367,16893,18148,19139,20185,21238
"221-Dixon-Sterling, IL",221,"Dixon-Sterling, IL",-89.71584514432433,41.75209465864866,0,0,0,0,0,0,0,0,0,0,0,0,0,0,0,0,0,0,0,0,0,0,0,0,0,0,0,0,0,0,0,0,0,0,0,0,0,0,0,0,0,0,0,0,0,0,0,0,0,0,0,0,0,0,0,1,1,1,1,1,1,1,1,1,1,2,2,3,4,5,5,6,9,17,20,20,20,27,27,36,37
"222-Dothan-Ozark, AL",222,"Dothan-Ozark, AL",-85.32396585943395,31.251325676603773,0,0,0,0,0,0,0,0,0,0,0,0,0,0,0,0,0,0,0,0,0,0,0,0,0,0,0,0,0,0,0,0,0,0,0,0,0,0,0,0,0,0,0,0,0,0,0,0,0,0,0,0,0,0,0,0,0,0,0,0,0,1,1,2,3,3,4,6,9,9,8,10,15,18,20,30,33,35,44,49,53
"232-Eau Claire-Menomonie, WI",232,"Eau Claire-Menomonie, WI",-91.398469900625,44.896222913125,0,0,0,0,0,0,0,0,0,0,0,0,0,0,0,0,0,0,0,0,0,0,0,0,0,0,0,0,0,0,0,0,0,0,0,0,0,0,0,0,0,0,0,0,0,0,0,0,0,0,0,0,0,0,0,0,0,2,5,5,6,6,6,7,8,12,13,17,20,22,25,28,35,35,42,42,42,42,45,47,48
"233-Edwards-Glenwood Springs, CO",233,"Edwards-Glenwood Springs, CO",-106.83442072209525,39.58800215001905,0,0,0,0,0,0,0,0,0,0,0,0,0,0,0,0,0,0,0,0,0,0,0,0,0,0,0,0,0,0,0,0,0,0,0,0,0,0,0,0,0,0,0,0,0,0,0,0,2,7,17,24,31,31,36,46,52,52,79,96,104,116,118,148,186,186,211,239,239,290,290,362,393,416,423,441,459,462,462,483,525
"236-Elmira-Corning, NY",236,"Elmira-Corning, NY",-77.17312395932204,42.22484530169491,0,0,0,0,0,0,0,0,0,0,0,0,0,0,0,0,0,0,0,0,0,0,0,0,0,0,0,0,0,0,0,0,0,0,0,0,0,0,0,0,0,0,0,0,0,0,0,0,0,0,0,0,0,0,0,0,0,0,2,2,2,6,11,11,18,23,25,32,34,39,60,65,81,96,111,122,124,142,151,176,177
"238-El Paso-Las Cruces, TX-NM",238,"El Paso-Las Cruces, TX-NM",-106.32501294864865,31.856462388648644,0,0,0,0,0,0,0,0,0,0,0,0,0,0,0,0,0,0,0,0,0,0,0,0,0,0,0,0,0,0,0,0,0,0,0,0,0,0,0,0,0,0,0,0,0,0,0,0,0,0,0,0,1,1,2,3,3,6,6,7,9,19,23,29,41,44,55,59,57,71,75,96,108,125,142,162,167,188,231,269,296
"240-Erie-Meadville, PA",240,"Erie-Meadville, PA",-80.05373797888889,41.90696573444444,0,0,0,0,0,0,0,0,0,0,0,0,0,0,0,0,0,0,0,0,0,0,0,0,0,0,0,0,0,0,0,0,0,0,0,0,0,0,0,0,0,0,0,0,0,0,0,0,0,0,0,0,0,0,0,0,1,1,1,1,2,3,5,5,6,8,9,10,17,18,20,22,22,24,26,36,37,37,45,49,54
"244-Fargo-Wahpeton, ND-MN",244,"Fargo-Wahpeton, ND-MN",-97.03414969894739,46.88319487398496,0,0,0,0,0,0,0,0,0,0,0,0,0,0,0,0,0,0,0,0,0,0,0,0,0,0,0,0,0,0,0,0,0,0,0,0,0,0,0,0,0,0,0,0,0,0,0,0,0,0,0,0,0,0,0,1,1,1,2,2,3,3,6,9,11,16,23,25,29,39,42,52,56,63,69,86,91,99,112,124,133
"246-Fayetteville-Sanford-Lumberton, NC",246,"Fayetteville-Sanford-Lumberton, NC",-79.13123751780488,35.17886666341463,0,0,0,0,0,0,0,0,0,0,0,0,0,0,0,0,0,0,0,0,0,0,0,0,0,0,0,0,0,0,0,0,0,0,0,0,0,0,0,0,0,0,0,0,0,0,0,0,0,0,0,0,1,2,3,3,5,11,12,15,16,17,21,26,29,29,31,43,46,56,62,72,82,98,104,114,139,165,193,215,246
"258-Fort Wayne-Huntington-Auburn, IN",258,"Fort Wayne-Huntington-Auburn, IN",-85.12444096,41.1450107580851,0,0,0,0,0,0,0,0,0,0,0,0,0,0,0,0,0,0,0,0,0,0,0,0,0,0,0,0,0,0,0,0,0,0,0,0,0,0,0,0,0,0,0,0,0,0,0,0,2,2,2,2,2,2,2,2,2,4,6,6,6,6,9,10,11,25,29,33,36,39,52,60,76,87,96,124,130,136,151,170,188
"260-Fresno-Madera-Hanford, CA",260,"Fresno-Madera-Hanford, CA",-119.66979596034484,36.79397858987069,0,0,0,0,0,0,0,0,0,0,0,0,0,0,0,0,0,0,0,0,0,0,0,0,0,0,0,0,0,0,0,0,0,0,0,0,0,0,0,0,0,0,0,0,0,1,2,2,2,3,3,2,2,2,3,3,3,4,9,9,9,9,19,24,26,37,44,60,63,77,95,112,127,133,136,141,157,179,192,211,232
"264-Gainesville-Lake City, FL",264,"Gainesville-Lake City, FL",-82.4089860066346,29.73227964519231,0,0,0,0,0,0,0,0,0,0,0,0,0,0,0,0,0,0,0,0,0,0,0,0,0,0,0,0,0,0,0,0,0,0,0,0,0,0,0,0,0,0,0,0,0,0,0,0,0,1,1,2,1,1,1,4,7,11,15,25,37,38,40,48,52,60,71,76,84,92,95,101,116,128,140,148,161,167,176,200,208
"266-Grand Rapids-Kentwood-Muskegon, MI",266,"Grand Rapids-Kentwood-Muskegon, MI",-85.66341666844298,43.06077856585527,0,0,0,0,0,0,0,0,0,0,0,0,0,0,0,0,0,0,0,0,0,0,0,0,0,0,0,0,0,0,0,0,0,0,0,0,0,0,0,0,0,0,0,0,0,0,0,0,0,0,0,4,4,4,7,7,7,9,14,25,30,42,51,58,69,79,91,118,154,172,192,209,231,256,282,298,331,359,404,432,456
"267-Green Bay-Shawano, WI",267,"Green Bay-Shawano, WI",-88.07425310414285,44.51010558114285,0,0,0,0,0,0,0,0,0,0,0,0,0,0,0,0,0,0,0,0,0,0,0,0,0,0,0,0,0,0,0,0,0,0,0,0,0,0,0,0,0,0,0,0,0,0,0,0,0,0,0,0,0,0,0,0,1,2,2,3,3,3,3,3,4,5,6,6,7,10,12,19,26,26,32,44,47,47,59,65,70
"268-Greensboro--Winston-Salem--High Point, NC",268,"Greensboro--Winston-Salem--High Point, NC",-80.0276651916495,36.01697435936082,0,0,0,0,0,0,0,0,0,0,0,0,0,0,0,0,0,0,0,0,0,0,0,0,0,0,0,0,0,0,0,0,0,0,0,0,0,0,0,0,0,0,0,0,0,0,0,0,0,0,3,2,2,2,2,3,3,9,13,23,27,29,40,47,54,83,103,120,132,156,198,233,280,310,330,365,409,425,444,457,485
"272-Greenville-Kinston-Washington, NC",272,"Greenville-Kinston-Washington, NC",-77.33837878235954,35.52343459898876,0,0,0,0,0,0,0,0,0,0,0,0,0,0,0,0,0,0,0,0,0,0,0,0,0,0,0,0,0,0,0,0,0,0,0,0,0,0,0,0,0,0,0,0,0,0,0,0,0,0,0,0,0,0,0,0,0,1,2,2,3,6,9,11,14,14,16,21,27,35,37,41,48,51,52,53,64,72,82,86,89
"273-Greenville-Spartanburg-Anderson, SC",273,"Greenville-Spartanburg-Anderson, SC",-82.30106340799426,34.814966029555876,0,0,0,0,0,0,0,0,0,0,0,0,0,0,0,0,0,0,0,0,0,0,0,0,0,0,0,0,0,0,0,0,0,0,0,0,0,0,0,0,0,0,0,0,0,0,0,1,1,1,1,1,1,1,4,5,6,10,20,33,35,54,64,89,89,101,121,147,175,212,253,299,340,375,385,425,476,476,571,652,698
"276-Harrisburg-York-Lebanon, PA",276,"Harrisburg-York-Lebanon, PA",-76.76655470361018,40.18596716513842,0,0,0,0,0,0,0,0,0,0,0,0,0,0,0,0,0,0,0,0,0,0,0,0,0,0,0,0,0,0,0,0,0,0,0,0,0,0,0,0,0,0,0,0,0,0,0,0,0,0,0,3,3,3,5,10,12,14,22,27,30,32,44,52,60,84,106,128,150,185,225,276,322,410,480,543,632,700,758,855,903
"277-Harrisonburg-Staunton, VA",277,"Harrisonburg-Staunton, VA",-78.90576131958903,38.41172837054795,0,0,0,0,0,0,0,0,0,0,0,0,0,0,0,0,0,0,0,0,0,0,0,0,0,0,0,0,0,0,0,0,0,0,0,0,0,0,0,0,0,0,0,0,0,0,0,0,0,0,0,1,1,1,1,1,1,1,1,1,3,3,4,5,6,9,9,9,11,13,22,31,40,47,52,55,57,72,77,109,146
"278-Hartford-East Hartford, CT",278,"Hartford-East Hartford, CT",-72.63394217894269,41.743061826715085,0,0,0,0,0,0,0,0,0,0,0,0,0,0,0,0,0,0,0,0,0,0,0,0,0,0,0,0,0,0,0,0,0,0,0,0,0,0,0,0,0,0,0,0,0,0,0,0,0,0,0,0,1,2,4,7,12,25,39,39,77,89,121,167,202,262,312,374,454,532,625,709,889,974,1012,1185,1391,1391,1960,2163,2478
"279-Hattiesburg-Laurel, MS",279,"Hattiesburg-Laurel, MS",-89.27257865860962,31.341847086577538,0,0,0,0,0,0,0,0,0,0,0,0,0,0,0,0,0,0,0,0,0,0,0,0,0,0,0,0,0,0,0,0,0,0,0,0,0,0,0,0,0,0,0,0,0,0,0,0,0,0,1,3,3,3,3,3,4,6,6,7,13,14,18,19,22,23,28,31,31,37,48,51,65,76,89,97,116,118,145,162,187
"284-Hot Springs-Malvern, AR",284,"Hot Springs-Malvern, AR",-93.129690761,34.550937925,0,0,0,0,0,0,0,0,0,0,0,0,0,0,0,0,0,0,0,0,0,0,0,0,0,0,0,0,0,0,0,0,0,0,0,0,0,0,0,0,0,0,0,0,0,0,0,0,0,0,0,0,0,0,0,0,0,0,0,0,3,9,10,17,19,21,21,26,27,32,33,42,42,45,48,48,53,58,69,74,80
"288-Houston-The Woodlands, TX",288,"Houston-The Woodlands, TX",-95.42238741587667,29.780852267452715,0,0,0,0,0,0,0,0,0,0,0,0,0,0,0,0,0,0,0,0,0,0,0,0,0,0,0,0,0,0,0,0,0,0,0,0,0,0,0,0,0,0,0,3,4,8,11,12,12,14,19,21,27,27,30,35,52,67,108,136,148,169,258,325,428,479,748,871,950,1177,1394,1581,1803,2059,2303,2825,3231,3564,4347,4663,5076
"290-Huntsville-Decatur, AL",290,"Huntsville-Decatur, AL",-86.67390561632959,34.71982702662922,0,0,0,0,0,0,0,0,0,0,0,0,0,0,0,0,0,0,0,0,0,0,0,0,0,0,0,0,0,0,0,0,0,0,0,0,0,0,0,0,0,0,0,0,0,0,0,0,0,0,0,0,2,1,1,2,2,6,8,10,17,22,27,46,68,72,96,115,131,144,150,163,179,184,198,211,220,224,251,258,267
"292-Idaho Falls-Rexburg-Blackfoot, ID",292,"Idaho Falls-Rexburg-Blackfoot, ID",-111.79405430416666,43.59742241666667,0,0,0,0,0,0,0,0,0,0,0,0,0,0,0,0,0,0,0,0,0,0,0,0,0,0,0,0,0,0,0,0,0,0,0,0,0,0,0,0,0,0,0,0,0,0,0,0,0,0,0,0,0,0,0,1,1,1,3,3,3,4,6,6,7,6,7,7,8,12,12,12,13,15,16,17,18,19,19,24,24
"294-Indianapolis-Carmel-Muncie, IN",294,"Indianapolis-Carmel-Muncie, IN",-86.09767114323914,39.76608065835177,0,0,0,0,0,0,0,0,0,0,0,0,0,0,0,0,0,0,0,0,0,0,0,0,0,0,0,0,0,0,0,0,0,0,0,0,0,0,0,0,0,0,0,0,1,1,2,3,4,7,9,9,10,14,17,18,23,32,45,77,138,138,252,345,456,706,873,1062,1269,1513,1807,2127,2361,2682,2999,3352,3702,3982,4201,4583,4884
"296-Ithaca-Cortland, NY",296,"Ithaca-Cortland, NY",-76.41765238968,42.46926393112,0,0,0,0,0,0,0,0,0,0,0,0,0,0,0,0,0,0,0,0,0,0,0,0,0,0,0,0,0,0,0,0,0,0,0,0,0,0,0,0,0,0,0,0,0,0,0,0,0,0,0,0,1,1,2,2,6,6,11,11,17,17,18,21,26,36,55,64,80,83,86,91,101,107,109,116,119,121,123,124,125
"297-Jackson-Brownsville, TN",297,"Jackson-Brownsville, TN",-88.90625456106383,35.67329832904256,0,0,0,0,0,0,0,0,0,0,0,0,0,0,0,0,0,0,0,0,0,0,0,0,0,0,0,0,0,0,0,0,0,0,0,0,0,0,0,0,0,0,0,0,0,0,0,0,0,0,0,0,0,0,0,0,0,0,0,0,2,2,4,5,6,7,7,10,10,16,18,24,31,35,39,45,69,69,78,93,94
"298-Jackson-Vicksburg-Brookhaven, MS",298,"Jackson-Vicksburg-Brookhaven, MS",-90.27483594581433,32.36268079501629,0,0,0,0,0,0,0,0,0,0,0,0,0,0,0,0,0,0,0,0,0,0,0,0,0,0,0,0,0,0,0,0,0,0,0,0,0,0,0,0,0,0,0,0,0,0,0,0,0,0,0,0,1,1,4,8,8,11,19,19,52,59,77,96,112,133,153,176,176,219,262,280,329,343,392,406,438,465,529,586,614
"300-Jacksonville-St. Marys-Palatka, FL-GA",300,"Jacksonville-St. Marys-Palatka, FL-GA",-81.67662360151085,30.212246176109545,0,0,0,0,0,0,0,0,0,0,0,0,0,0,0,0,0,0,0,0,0,0,0,0,0,0,0,0,0,0,0,0,0,0,0,0,0,0,0,0,0,0,0,0,0,0,0,0,0,1,2,5,3,9,9,17,22,24,29,43,67,82,90,106,150,175,214,233,285,363,384,493,562,649,694,768,836,882,944,982,1059
"304-Johnson City-Kingsport-Bristol, TN-VA",304,"Johnson City-Kingsport-Bristol, TN-VA",-82.40757194109375,36.47439281289063,0,0,0,0,0,0,0,0,0,0,0,0,0,0,0,0,0,0,0,0,0,0,0,0,0,0,0,0,0,0,0,0,0,0,0,0,0,0,0,0,0,0,0,0,0,0,0,0,0,1,1,1,1,1,1,1,1,1,3,3,3,8,9,10,15,21,26,29,29,36,48,49,54,57,64,73,84,92,108,119,128
"306-Johnstown-Somerset, PA",306,"Johnstown-Somerset, PA",-78.84995760608696,40.26764499217391,0,0,0,0,0,0,0,0,0,0,0,0,0,0,0,0,0,0,0,0,0,0,0,0,0,0,0,0,0,0,0,0,0,0,0,0,0,0,0,0,0,0,0,0,0,0,0,0,0,0,0,0,0,0,0,0,0,0,0,0,0,1,2,3,3,3,3,3,4,4,6,7,7,9,11,13,14,16,17,21,23
"308-Jonesboro-Paragould, AR",308,"Jonesboro-Paragould, AR",-90.62708740863637,35.82863960704545,0,0,0,0,0,0,0,0,0,0,0,0,0,0,0,0,0,0,0,0,0,0,0,0,0,0,0,0,0,0,0,0,0,0,0,0,0,0,0,0,0,0,0,0,0,0,0,0,0,0,0,0,0,0,0,0,0,0,0,0,3,8,8,8,8,8,8,10,10,14,17,18,20,22,24,26,29,35,40,42,44
"309-Joplin-Miami, MO-OK",309,"Joplin-Miami, MO-OK",-94.5036584652174,37.02356956478261,0,0,0,0,0,0,0,0,0,0,0,0,0,0,0,0,0,0,0,0,0,0,0,0,0,0,0,0,0,0,0,0,0,0,0,0,0,0,0,0,0,0,0,0,0,0,0,0,0,0,0,0,0,0,0,0,0,0,0,1,1,1,1,3,6,6,12,14,16,19,19,21,23,27,28,31,35,36,39,44,46
"310-Kalamazoo-Battle Creek-Portage, MI",310,"Kalamazoo-Battle Creek-Portage, MI",-85.27730716801021,42.168280013214286,0,0,0,0,0,0,0,0,0,0,0,0,0,0,0,0,0,0,0,0,0,0,0,0,0,0,0,0,0,0,0,0,0,0,0,0,0,0,0,0,0,0,0,0,0,0,0,0,0,0,0,0,0,0,0,0,0,0,0,1,2,6,7,11,17,20,26,34,44,47,60,72,87,98,118,125,137,152,173,187,196
"312-Kansas City-Overland Park-Kansas City, MO-KS",312,"Kansas City-Overland Park-Kansas City, MO-KS",-94.6358915343225,39.043870014092136,0,0,0,0,0,0,0,0,0,0,0,0,0,0,0,0,0,0,0,0,0,0,0,0,0,0,0,0,0,0,0,0,0,0,0,0,0,0,0,0,0,0,0,0,0,0,1,1,1,1,4,5,7,7,10,18,25,40,65,73,82,105,125,176,249,300,362,411,460,559,624,701,751,871,891,1029,1085,1177,1245,1348,1476
"313-Kennewick-Richland-Walla Walla, WA",313,"Kennewick-Richland-Walla Walla, WA",-119.2803080754717,46.32378626078167,0,0,0,0,0,0,0,0,0,0,0,0,0,0,0,0,0,0,0,0,0,0,0,0,0,0,0,0,0,0,0,0,0,0,0,0,0,0,0,0,0,0,0,0,0,0,0,0,0,0,0,0,0,0,0,0,1,1,5,10,11,15,15,21,28,56,58,77,145,128,148,179,189,205,229,251,259,270,318,347,371
"314-Kerrville-Fredericksburg, TX",314,"Kerrville-Fredericksburg, TX",-99.21512401,30.146347023333334,0,0,0,0,0,0,0,0,0,0,0,0,0,0,0,0,0,0,0,0,0,0,0,0,0,0,0,0,0,0,0,0,0,0,0,0,0,0,0,0,0,0,0,0,0,0,0,0,0,0,0,0,0,0,0,0,0,0,0,0,0,0,0,0,0,0,0,0,0,2,2,2,3,4,4,5,3,3,3,3,3
"315-Knoxville-Morristown-Sevierville, TN",315,"Knoxville-Morristown-Sevierville, TN",-83.9252276043269,35.951502121602566,0,0,0,0,0,0,0,0,0,0,0,0,0,0,0,0,0,0,0,0,0,0,0,0,0,0,0,0,0,0,0,0,0,0,0,0,0,0,0,0,0,0,0,0,0,0,0,0,0,0,1,2,3,3,4,5,5,5,7,15,17,27,33,41,52,66,74,83,102,134,154,175,189,198,217,227,264,274,290,304,312
"316-Kokomo-Peru, IN",316,"Kokomo-Peru, IN",-86.09673159868852,40.55514591819672,0,0,0,0,0,0,0,0,0,0,0,0,0,0,0,0,0,0,0,0,0,0,0,0,0,0,0,0,0,0,0,0,0,0,0,0,0,0,0,0,0,0,0,0,0,0,0,0,0,1,1,1,1,1,2,2,2,5,5,5,7,7,7,7,7,8,10,13,17,19,23,28,30,35,34,39,46,56,55,60,61
"318-Lafayette-Opelousas-Morgan City, LA",318,"Lafayette-Opelousas-Morgan City, LA",-91.92203451036958,30.13631540898627,0,0,0,0,0,0,0,0,0,0,0,0,0,0,0,0,0,0,0,0,0,0,0,0,0,0,0,0,0,0,0,0,0,0,0,0,0,0,0,0,0,0,0,0,0,0,0,0,0,0,1,0,0,0,0,0,0,2,10,12,12,17,22,34,49,84,99,102,159,286,377,547,628,551,598,654,699,769,828,910,947
"320-Lafayette-West Lafayette-Frankfort, IN",320,"Lafayette-West Lafayette-Frankfort, IN",-86.8060736790164,40.38768736934426,0,0,0,0,0,0,0,0,0,0,0,0,0,0,0,0,0,0,0,0,0,0,0,0,0,0,0,0,0,0,0,0,0,0,0,0,0,0,0,0,0,0,0,0,0,0,0,0,0,0,0,0,0,0,0,0,0,1,2,2,2,2,3,4,8,10,14,15,19,19,24,24,33,36,38,43,46,51,55,59,61
"324-Lake Charles-Jennings, LA",324,"Lake Charles-Jennings, LA",-93.28632558329825,30.231702369508774,0,0,0,0,0,0,0,0,0,0,0,0,0,0,0,0,0,0,0,0,0,0,0,0,0,0,0,0,0,0,0,0,0,0,0,0,0,0,0,0,0,0,0,0,0,0,0,0,0,0,0,0,0,0,0,0,0,0,3,4,4,4,5,12,16,23,29,37,45,70,99,121,133,144,152,180,212,220,240,261,285
"332-Las Vegas-Henderson, NV",332,"Las Vegas-Henderson, NV",-115.01979868727948,36.22307533741876,0,0,0,0,0,0,0,0,0,0,0,0,0,0,0,0,0,0,0,0,0,0,0,0,0,0,0,0,0,0,0,0,0,0,0,0,0,0,0,0,0,0,0,1,1,1,2,2,2,5,8,16,16,16,35,42,42,69,126,126,126,126,213,250,351,444,444,529,754,870,965,1129,1285,1425,1526,1615,1741,1885,2019,2154,2154
"336-Lexington-Fayette--Richmond--Frankfort, KY",336,"Lexington-Fayette--Richmond--Frankfort, KY",-84.45000063946502,38.02905487255144,0,0,0,0,0,0,0,0,0,0,0,0,0,0,0,0,0,0,0,0,0,0,0,0,0,0,0,0,0,0,0,0,0,0,0,0,0,0,0,0,0,0,0,0,1,1,1,1,2,2,3,5,5,7,8,11,12,12,18,18,18,29,30,43,43,43,43,112,130,166,166,172,172,200,206,206,208,208,243,243,243
"338-Lima-Van Wert-Celina, OH",338,"Lima-Van Wert-Celina, OH",-84.26886174272728,40.67096088581819,0,0,0,0,0,0,0,0,0,0,0,0,0,0,0,0,0,0,0,0,0,0,0,0,0,0,0,0,0,0,0,0,0,0,0,0,0,0,0,0,0,0,0,0,0,0,0,0,0,0,0,0,0,0,0,0,0,0,0,0,0,0,0,1,1,2,6,9,9,10,15,20,24,29,33,37,40,44,45,47,55
"339-Lincoln-Beatrice, NE",339,"Lincoln-Beatrice, NE",-96.69427534868422,40.61351506697368,0,0,0,0,0,0,0,0,0,0,0,0,0,0,0,0,0,0,0,0,0,0,0,0,0,0,0,0,0,0,0,0,0,0,0,0,0,0,0,0,0,0,0,0,0,0,0,0,0,0,0,0,0,0,0,0,0,0,1,2,2,2,3,4,4,4,5,5,8,8,9,13,16,20,28,42,58,63,69,74,76
"340-Little Rock-North Little Rock, AR",340,"Little Rock-North Little Rock, AR",-92.20802763707603,34.703991062846,0,0,0,0,0,0,0,0,0,0,0,0,0,0,0,0,0,0,0,0,0,0,0,0,0,0,0,0,0,0,0,0,0,0,0,0,0,0,0,0,0,0,0,0,0,0,0,0,0,0,0,0,3,3,3,3,3,3,3,3,17,105,112,136,147,160,171,175,178,207,230,254,293,305,346,359,400,419,466,483,513
"348-Los Angeles-Long Beach, CA",348,"Los Angeles-Long Beach, CA",-117.80506666161467,34.2200333928617,0,0,0,0,2,2,2,2,2,2,2,2,2,2,2,2,2,2,2,2,2,2,2,2,2,2,2,2,2,2,2,2,2,2,2,2,2,2,2,2,2,2,10,14,16,17,18,19,30,39,48,59,86,86,131,193,248,324,413,427,573,754,937,1144,1694,2050,2210,2629,3449,4143,4827,5608,6251,6585,8181,8799,9656,10564,11229,11958,12213
"350-Louisville/Jefferson County--Elizabethtown--Bardstown, KY-IN",350,"Louisville/Jefferson County--Elizabethtown--Bardstown, KY-IN",-85.73887421269798,38.25741257813422,0,0,0,0,0,0,0,0,0,0,0,0,0,0,0,0,0,0,0,0,0,0,0,0,0,0,0,0,0,0,0,0,0,0,0,0,0,0,0,0,0,0,0,0,0,0,0,1,1,1,2,2,5,5,8,9,11,11,34,38,37,47,52,57,63,72,151,167,202,308,316,372,389,498,526,531,600,611,713,725,745
"352-Lubbock-Plainview-Levelland, TX",352,"Lubbock-Plainview-Levelland, TX",-101.84314269247314,33.620372068853044,0,0,0,0,0,0,0,0,0,0,0,0,0,0,0,0,0,0,0,0,0,0,0,0,0,0,0,0,0,0,0,0,0,0,0,0,0,0,0,0,0,0,0,0,0,0,0,0,0,0,0,0,0,0,0,0,3,3,3,12,12,12,15,19,25,37,40,51,61,87,110,124,133,154,174,201,202,213,240,261,279
"356-Macon-Bibb County--Warner Robins, GA",356,"Macon-Bibb County--Warner Robins, GA",-83.70406884662222,32.6294264904,0,0,0,0,0,0,0,0,0,0,0,0,0,0,0,0,0,0,0,0,0,0,0,0,0,0,0,0,0,0,0,0,0,0,0,0,0,0,0,0,0,0,0,0,0,0,0,0,0,0,0,0,0,0,0,0,1,3,5,6,7,8,14,21,28,32,36,41,45,65,76,91,108,119,133,139,161,185,202,213,225
"357-Madison-Janesville-Beloit, WI",357,"Madison-Janesville-Beloit, WI",-89.41181324357467,43.05225495450227,0,0,0,0,0,0,0,0,0,0,0,0,0,0,0,0,0,0,0,0,0,0,0,0,0,0,0,0,0,0,0,0,0,0,0,0,0,0,0,0,0,0,0,0,0,0,0,0,2,2,4,5,6,6,10,19,23,32,42,60,72,82,86,107,158,190,209,225,237,266,270,298,319,336,357,372,382,396,413,426,442
"359-Mankato-New Ulm, MN",359,"Mankato-New Ulm, MN",-94.22959926057143,44.13125113314286,0,0,0,0,0,0,0,0,0,0,0,0,0,0,0,0,0,0,0,0,0,0,0,0,0,0,0,0,0,0,0,0,0,0,0,0,0,0,0,0,0,0,0,0,0,0,0,0,0,0,0,0,0,0,0,0,4,4,4,5,7,8,8,8,9,10,10,11,12,14,14,15,15,21,22,25,33,33,34,35,35
"360-Mansfield-Ashland-Bucyrus, OH",360,"Mansfield-Ashland-Bucyrus, OH",-82.60797094846154,40.798815170192306,0,0,0,0,0,0,0,0,0,0,0,0,0,0,0,0,0,0,0,0,0,0,0,0,0,0,0,0,0,0,0,0,0,0,0,0,0,0,0,0,0,0,0,0,0,0,0,0,0,0,0,0,0,0,0,0,1,2,2,2,2,2,6,6,6,8,10,9,12,13,15,17,19,24,29,31,32,37,43,46,52
"361-Marinette-Iron Mountain, WI-MI",361,"Marinette-Iron Mountain, WI-MI",-88.00648598333333,45.71847230444444,0,0,0,0,0,0,0,0,0,0,0,0,0,0,0,0,0,0,0,0,0,0,0,0,0,0,0,0,0,0,0,0,0,0,0,0,0,0,0,0,0,0,0,0,0,0,0,0,0,0,0,0,0,0,0,0,0,0,0,0,0,0,0,0,0,1,1,1,1,1,2,3,3,3,4,7,7,7,8,9,9
"362-Martin-Union City, TN",362,"Martin-Union City, TN",-88.97033787333332,36.333006901666664,0,0,0,0,0,0,0,0,0,0,0,0,0,0,0,0,0,0,0,0,0,0,0,0,0,0,0,0,0,0,0,0,0,0,0,0,0,0,0,0,0,0,0,0,0,0,0,0,0,0,0,0,0,0,0,0,0,0,0,0,0,1,0,0,0,0,1,2,2,2,3,3,3,3,7,7,8,9,9,10,12
"365-McAllen-Edinburg, TX",365,"McAllen-Edinburg, TX",-98.20369635542552,26.400412111170215,0,0,0,0,0,0,0,0,0,0,0,0,0,0,0,0,0,0,0,0,0,0,0,0,0,0,0,0,0,0,0,0,0,0,0,0,0,0,0,0,0,0,0,0,0,0,0,0,0,0,0,0,0,0,0,0,0,0,0,0,2,2,2,7,10,13,20,29,30,40,50,67,84,91,92,106,120,135,146,153,188
"366-Medford-Grants Pass, OR",366,"Medford-Grants Pass, OR",-122.9594795770492,42.413769323606566,0,0,0,0,0,0,0,0,0,0,0,0,0,0,0,0,0,0,0,0,0,0,0,0,0,0,0,0,0,0,0,0,0,0,0,0,0,0,0,0,0,0,0,0,0,1,2,2,2,2,2,2,2,2,2,2,2,2,2,3,3,3,4,6,8,10,13,25,30,31,32,39,39,39,46,46,55,55,60,60,61
"368-Memphis-Forrest City, TN-MS-AR",368,"Memphis-Forrest City, TN-MS-AR",-89.9319310596066,35.139258408032994,0,0,0,0,0,0,0,0,0,0,0,0,0,0,0,0,0,0,0,0,0,0,0,0,0,0,0,0,0,0,0,0,0,0,0,0,0,0,0,0,0,0,0,0,0,0,1,1,1,1,2,2,2,2,2,3,6,12,10,59,99,131,180,230,283,331,394,503,537,600,695,856,880,949,1033,1080,1178,1265,1387,1497,1576
"370-Miami-Port St. Lucie-Fort Lauderdale, FL",370,"Miami-Port St. Lucie-Fort Lauderdale, FL",-80.52502956107595,25.931376719043595,0,0,0,0,0,0,0,0,0,0,0,0,0,0,0,0,0,0,0,0,0,0,0,0,0,0,0,0,0,0,0,0,0,0,0,0,0,0,0,0,0,0,0,0,0,2,2,3,4,4,8,15,33,54,54,101,167,228,299,397,530,651,774,905,1332,1631,2191,2451,3311,4019,4130,5265,6009,6830,7273,7906,8690,9263,9820,10530,11125
"372-Midland-Odessa, TX",372,"Midland-Odessa, TX",-102.30957575068493,31.880983993150686,0,0,0,0,0,0,0,0,0,0,0,0,0,0,0,0,0,0,0,0,0,0,0,0,0,0,0,0,0,0,0,0,0,0,0,0,0,0,0,0,0,0,0,0,0,0,0,0,0,0,0,0,0,0,0,0,0,0,1,1,1,1,3,4,7,8,13,16,21,27,28,29,45,45,51,52,59,62,72,72,73
"376-Milwaukee-Racine-Waukesha, WI",376,"Milwaukee-Racine-Waukesha, WI",-88.03427971833257,43.01622998921451,0,0,0,0,0,0,0,0,0,0,0,0,0,0,0,0,0,0,0,0,0,0,0,0,0,0,0,0,0,0,0,0,0,0,0,0,0,0,0,0,0,0,0,0,0,0,0,0,0,0,1,4,10,10,17,29,56,84,127,168,248,276,322,428,471,555,713,793,825,947,1042,1157,1349,1349,1559,1641,1731,1832,1949,2080,2177
"378-Minneapolis-St. Paul, MN-WI",378,"Minneapolis-St. Paul, MN-WI",-93.32138880716371,44.96660761979144,0,0,0,0,0,0,0,0,0,0,0,0,0,0,0,0,0,0,0,0,0,0,0,0,0,0,0,0,0,0,0,0,0,0,0,0,0,0,0,0,0,0,0,0,1,1,1,2,3,6,9,10,20,20,49,53,64,74,93,105,125,185,211,226,257,293,327,366,421,453,489,520,547,585,633,665,715,773,829,887,959
"380-Mobile-Daphne-Fairhope, AL",380,"Mobile-Daphne-Fairhope, AL",-88.14233843679013,30.792407453950617,0,0,0,0,0,0,0,0,0,0,0,0,0,0,0,0,0,0,0,0,0,0,0,0,0,0,0,0,0,0,0,0,0,0,0,0,0,0,0,0,0,0,0,0,0,0,0,0,0,0,0,0,0,1,1,1,1,2,6,5,5,6,11,15,25,30,41,59,66,74,79,94,136,148,159,186,250,300,376,428,486
"384-Monroe-Ruston, LA",384,"Monroe-Ruston, LA",-92.19526678734341,32.54362488565875,0,0,0,0,0,0,0,0,0,0,0,0,0,0,0,0,0,0,0,0,0,0,0,0,0,0,0,0,0,0,0,0,0,0,0,0,0,0,0,0,0,0,0,0,0,0,0,0,0,0,0,0,0,0,0,0,0,0,0,2,2,11,9,15,27,38,49,59,63,80,106,124,155,221,229,290,339,357,391,427,463
"388-Montgomery-Selma-Alexander City, AL",388,"Montgomery-Selma-Alexander City, AL",-86.19672494870446,32.4833732040081,0,0,0,0,0,0,0,0,0,0,0,0,0,0,0,0,0,0,0,0,0,0,0,0,0,0,0,0,0,0,0,0,0,0,0,0,0,0,0,0,0,0,0,0,0,0,0,0,0,0,0,1,2,2,3,4,6,8,8,9,9,11,20,32,42,45,46,54,55,68,77,100,124,129,147,153,165,172,203,224,247
"390-Morgantown-Fairmont, WV",390,"Morgantown-Fairmont, WV",-80.08171717844829,39.58992852689655,0,0,0,0,0,0,0,0,0,0,0,0,0,0,0,0,0,0,0,0,0,0,0,0,0,0,0,0,0,0,0,0,0,0,0,0,0,0,0,0,0,0,0,0,0,0,0,0,0,0,0,0,0,0,0,0,0,0,1,1,2,2,5,17,21,27,27,35,38,39,43,48,50,58,68,74,91,104,113,116,116
"393-Moses Lake-Othello, WA",393,"Moses Lake-Othello, WA",-119.25938172142858,47.15942169857143,0,0,0,0,0,0,0,0,0,0,0,0,0,0,0,0,0,0,0,0,0,0,0,0,0,0,0,0,0,0,0,0,0,0,0,0,0,0,0,0,0,0,0,1,1,1,1,1,1,1,1,1,2,2,3,7,8,8,8,11,18,24,24,28,36,42,49,55,66,76,77,93,95,97,103,114,115,123,125,131,140
"394-Mount Pleasant-Alma, MI",394,"Mount Pleasant-Alma, MI",-84.80906777466666,43.58648362733333,0,0,0,0,0,0,0,0,0,0,0,0,0,0,0,0,0,0,0,0,0,0,0,0,0,0,0,0,0,0,0,0,0,0,0,0,0,0,0,0,0,0,0,0,0,0,0,0,0,0,0,0,0,0,0,0,0,0,0,0,0,0,2,2,3,5,6,7,8,9,10,13,14,14,16,21,28,27,34,43,45
"396-Myrtle Beach-Conway, SC-NC",396,"Myrtle Beach-Conway, SC-NC",-78.91815404666666,33.86823438909091,0,0,0,0,0,0,0,0,0,0,0,0,0,0,0,0,0,0,0,0,0,0,0,0,0,0,0,0,0,0,0,0,0,0,0,0,0,0,0,0,0,0,0,0,0,0,0,0,0,0,0,0,1,1,4,5,6,7,12,13,17,26,31,32,33,38,46,53,57,66,72,88,90,104,106,123,139,139,160,182,198
"400-Nashville-Davidson--Murfreesboro, TN",400,"Nashville-Davidson--Murfreesboro, TN",-86.68047794717741,36.152898736370965,0,0,0,0,0,0,0,0,0,0,0,0,0,0,0,0,0,0,0,0,0,0,0,0,0,0,0,0,0,0,0,0,0,0,0,0,0,0,0,0,0,0,0,1,1,1,2,2,2,7,14,20,25,25,44,64,87,110,153,214,260,287,399,423,490,570,676,723,859,1051,1256,1545,1524,1645,1779,1846,2010,2125,2229,2343,2480
"404-New Bern-Morehead City, NC",404,"New Bern-Morehead City, NC",-76.87251797142856,35.02673438517857,0,0,0,0,0,0,0,0,0,0,0,0,0,0,0,0,0,0,0,0,0,0,0,0,0,0,0,0,0,0,0,0,0,0,0,0,0,0,0,0,0,0,0,0,0,0,0,0,0,0,0,0,1,1,1,1,1,2,3,7,7,7,8,8,8,9,11,12,17,19,22,26,32,33,34,46,48,44,48,50,56
"406-New Orleans-Metairie-Hammond, LA-MS",406,"New Orleans-Metairie-Hammond, LA-MS",-90.03947389528037,29.982499375275886,0,0,0,0,0,0,0,0,0,0,0,0,0,0,0,0,0,0,0,0,0,0,0,0,0,0,0,0,0,0,0,0,0,0,0,0,0,0,0,0,0,0,0,0,0,0,0,0,0,5,17,28,70,84,107,186,246,324,472,651,687,945,1112,1365,1703,2013,2413,2506,2822,3690,4504,6666,7446,8820,9109,10247,11263,11698,12458,12987,13429
"408-New York-Newark, NY-NJ-CT-PA",408,"New York-Newark, NY-NJ-CT-PA",-73.87212928953844,40.843991120455925,0,0,0,0,0,0,0,0,0,0,0,0,0,0,0,0,0,0,0,0,0,0,0,0,0,0,0,0,0,0,0,0,0,0,0,0,0,0,0,0,1,2,11,25,33,78,109,145,162,243,352,471,657,687,1126,1804,3364,6259,8629,12650,17196,22920,28389,34067,42840,51297,60459,69487,78962,90729,101243,112552,127763,143467,155974,169016,181844,196286,211591,226031,238183
"412-North Port-Sarasota, FL",412,"North Port-Sarasota, FL",-82.2293487368124,27.236068608834245,0,0,0,0,0,0,0,0,0,0,0,0,0,0,0,0,0,0,0,0,0,0,0,0,0,0,0,0,0,0,0,0,0,0,0,0,0,0,0,0,0,0,0,0,0,0,1,3,3,3,3,5,6,6,6,10,14,16,20,29,31,40,46,53,68,79,97,106,125,160,171,245,280,315,335,364,417,445,463,511,549
"416-Oklahoma City-Shawnee, OK",416,"Oklahoma City-Shawnee, OK",-97.408475778325,35.4185697458375,0,0,0,0,0,0,0,0,0,0,0,0,0,0,0,0,0,0,0,0,0,0,0,0,0,0,0,0,0,0,0,0,0,0,0,0,0,0,0,0,0,0,0,0,0,0,0,0,0,0,0,0,1,1,4,9,9,32,35,37,44,50,70,93,128,156,176,195,224,258,330,399,434,498,513,542,606,629,731,773,800
"420-Omaha-Council Bluffs-Fremont, NE-IA",420,"Omaha-Council Bluffs-Fremont, NE-IA",-96.1320591812766,41.303052207234046,0,0,0,0,0,0,0,0,0,0,0,0,0,0,0,0,0,0,0,0,0,0,0,0,0,0,0,0,0,0,0,0,0,0,0,0,0,0,0,0,0,0,0,0,1,1,1,3,4,5,10,15,19,18,19,23,23,27,27,31,45,45,58,62,66,73,84,90,115,140,160,179,193,207,223,238,241,275,293,312,329
"422-Orlando-Lakeland-Deltona, FL",422,"Orlando-Lakeland-Deltona, FL",-81.37884088163578,28.500887082092188,0,0,0,0,0,0,0,0,0,0,0,0,0,0,0,0,0,0,0,0,0,0,0,0,0,0,0,0,0,0,0,0,0,0,0,0,0,0,0,0,0,0,0,0,0,0,1,1,2,2,3,4,7,9,9,27,37,58,70,91,113,144,158,211,291,392,492,585,700,874,911,1235,1402,1525,1650,1722,1815,1923,2048,2154,2213
"424-Paducah-Mayfield, KY-IL",424,"Paducah-Mayfield, KY-IL",-88.70597899166667,36.998782255,0,0,0,0,0,0,0,0,0,0,0,0,0,0,0,0,0,0,0,0,0,0,0,0,0,0,0,0,0,0,0,0,0,0,0,0,0,0,0,0,0,0,0,0,0,0,0,0,0,0,0,0,0,0,0,0,0,0,0,0,0,0,1,2,2,2,2,3,5,8,8,9,9,13,17,17,17,17,24,24,24
"425-Parkersburg-Marietta-Vienna, WV-OH",425,"Parkersburg-Marietta-Vienna, WV-OH",-81.49511215857142,39.36211294964286,0,0,0,0,0,0,0,0,0,0,0,0,0,0,0,0,0,0,0,0,0,0,0,0,0,0,0,0,0,0,0,0,0,0,0,0,0,0,0,0,0,0,0,0,0,0,0,0,0,0,0,0,0,0,0,0,0,0,0,0,1,1,1,2,2,4,4,5,6,6,6,8,10,14,19,27,41,45,49,55,56
"426-Pensacola-Ferry Pass, FL-AL",426,"Pensacola-Ferry Pass, FL-AL",-87.252562291,30.694701020125002,0,0,0,0,0,0,0,0,0,0,0,0,0,0,0,0,0,0,0,0,0,0,0,0,0,0,0,0,0,0,0,0,0,0,0,0,0,0,0,0,0,0,0,1,1,1,1,1,1,1,1,1,1,1,2,2,1,3,4,4,8,13,14,21,28,33,43,51,73,139,139,150,163,170,183,197,236,252,260,305,320
"428-Philadelphia-Reading-Camden, PA-NJ-DE-MD",428,"Philadelphia-Reading-Camden, PA-NJ-DE-MD",-75.23621597615505,39.977279794247394,0,0,0,0,0,0,0,0,0,0,0,0,0,0,0,0,0,0,0,0,0,0,0,0,0,0,0,0,0,0,0,0,0,0,0,0,0,0,0,0,0,0,0,0,1,1,5,6,13,17,21,39,46,46,70,101,150,196,274,335,428,605,828,1071,1473,1903,2268,2678,3108,3642,4451,5305,6215,7487,8320,9588,10825,12186,13625,15043,16549
"429-Phoenix-Mesa, AZ",429,"Phoenix-Mesa, AZ",-112.4072672582843,33.31731341320589,0,0,0,0,1,1,1,1,1,1,1,1,1,1,1,1,1,1,1,1,1,1,1,1,1,1,1,1,1,1,1,1,1,1,1,1,1,1,1,1,1,1,1,1,2,4,4,4,5,8,8,8,9,9,13,14,19,32,44,63,97,156,221,274,334,435,496,597,755,851,937,1032,1128,1263,1432,1542,1618,1686,1829,1882,2040
"430-Pittsburgh-New Castle-Weirton, PA-OH-WV",430,"Pittsburgh-New Castle-Weirton, PA-OH-WV",-79.93305368020805,40.497487746292556,0,0,0,0,0,0,0,0,0,0,0,0,0,0,0,0,0,0,0,0,0,0,0,0,0,0,0,0,0,0,0,0,0,0,0,0,0,0,0,0,0,0,0,0,0,0,0,0,0,0,0,1,3,3,7,13,17,25,38,44,56,70,90,139,214,259,374,442,500,583,636,727,844,972,1068,1143,1269,1336,1405,1490,1586
"438-Portland-Lewiston-South Portland, ME",438,"Portland-Lewiston-South Portland, ME",-70.44902684978676,43.750325168464826,0,0,0,0,0,0,0,0,0,0,0,0,0,0,0,0,0,0,0,0,0,0,0,0,0,0,0,0,0,0,0,0,0,0,0,0,0,0,0,0,0,0,0,0,0,0,0,0,0,0,1,1,1,2,14,21,29,30,43,53,67,84,96,118,126,135,170,204,222,246,246,300,342,359,372,393,404,419,439,452,469
"440-Portland-Vancouver-Salem, OR-WA",440,"Portland-Vancouver-Salem, OR-WA",-122.66394031866861,45.38287481305355,0,0,0,0,0,0,0,0,0,0,0,0,0,0,0,0,0,0,0,0,0,0,0,0,0,0,0,0,0,0,0,0,0,0,0,0,0,0,1,1,2,2,2,2,2,4,10,10,10,13,18,26,30,30,34,59,66,79,103,127,151,183,200,253,327,442,509,565,611,708,761,835,901,901,1049,1080,1145,1192,1326,1326,1382
"444-Pueblo-Cañon City, CO",444,"Pueblo-Cañon City, CO",-104.5970367,38.20086706,0,0,0,0,0,0,0,0,0,0,0,0,0,0,0,0,0,0,0,0,0,0,0,0,0,0,0,0,0,0,0,0,0,0,0,0,0,0,0,0,0,0,0,0,0,0,0,0,0,0,0,1,1,1,1,1,1,2,2,3,3,3,3,4,4,4,7,11,11,23,23,24,28,33,43,45,48,49,49,53,55
"446-Pullman-Moscow, WA-ID",446,"Pullman-Moscow, WA-ID",-117.361615,46.883355958,0,0,0,0,0,0,0,0,0,0,0,0,0,0,0,0,0,0,0,0,0,0,0,0,0,0,0,0,0,0,0,0,0,0,0,0,0,0,0,0,0,0,0,0,0,0,0,0,0,0,0,0,0,0,0,0,0,0,0,0,1,2,2,2,3,5,6,6,8,8,11,12,12,12,12,13,14,14,14,15,15
"448-Quincy-Hannibal, IL-MO",448,"Quincy-Hannibal, IL-MO",-91.20058037230771,39.97046430846154,0,0,0,0,0,0,0,0,0,0,0,0,0,0,0,0,0,0,0,0,0,0,0,0,0,0,0,0,0,0,0,0,0,0,0,0,0,0,0,0,0,0,0,0,0,0,0,0,0,0,0,0,0,0,0,0,0,0,1,1,1,1,1,2,2,2,2,3,3,3,3,3,3,4,4,9,9,2,2,25,26
"450-Raleigh-Durham-Cary, NC",450,"Raleigh-Durham-Cary, NC",-78.75283243741008,35.9217842882464,0,0,0,0,0,0,0,0,0,0,0,0,0,0,0,0,0,0,0,0,0,0,0,0,0,0,0,0,0,0,0,0,0,0,0,0,0,0,0,0,0,1,1,1,2,2,2,2,7,7,10,11,15,18,19,37,54,65,85,87,110,111,156,183,236,271,292,326,342,405,440,514,566,622,663,739,823,884,940,1007,1112
"452-Rapid City-Spearfish, SD",452,"Rapid City-Spearfish, SD",-103.3025211611111,44.212232533333335,0,0,0,0,0,0,0,0,0,0,0,0,0,0,0,0,0,0,0,0,0,0,0,0,0,0,0,0,0,0,0,0,0,0,0,0,0,0,0,0,0,0,0,0,0,0,0,0,0,1,1,1,1,1,1,1,1,1,1,1,1,1,1,2,2,6,6,8,11,12,12,16,16,16,16,16,16,16,17,18,18
"454-Redding-Red Bluff, CA",454,"Redding-Red Bluff, CA",-122.047581548,40.7383859964,0,0,0,0,0,0,0,0,0,0,0,0,0,0,0,0,0,0,0,0,0,0,0,0,0,0,0,0,0,0,0,0,0,0,0,0,0,0,0,0,0,0,0,0,0,0,0,1,1,1,1,1,1,1,1,1,1,1,1,1,1,2,2,3,3,3,3,4,4,6,7,7,11,13,18,21,22,24,25,25,25
"456-Reno-Carson City-Fernley, NV",456,"Reno-Carson City-Fernley, NV",-119.65850588456055,40.543097283824224,0,0,0,0,0,0,0,0,0,0,0,0,0,0,0,0,0,0,0,0,0,0,0,0,0,0,0,0,0,0,0,0,0,0,0,0,0,0,0,0,0,0,0,0,1,1,2,2,2,2,2,2,4,4,10,13,13,15,16,24,27,28,48,56,63,73,86,118,122,133,155,175,198,265,284,285,330,351,353,393,421
"458-Richmond-Connersville, IN",458,"Richmond-Connersville, IN",-85.10100422513514,39.74091478918919,0,0,0,0,0,0,0,0,0,0,0,0,0,0,0,0,0,0,0,0,0,0,0,0,0,0,0,0,0,0,0,0,0,0,0,0,0,0,0,0,0,0,0,0,0,0,0,0,0,0,0,0,0,0,0,0,1,2,2,2,2,2,2,3,4,4,5,6,9,11,13,14,19,20,24,26,31,34,35,35,37
"462-Rochester-Austin, MN",462,"Rochester-Austin, MN",-92.46023138639785,43.95546950381721,0,0,0,0,0,0,0,0,0,0,0,0,0,0,0,0,0,0,0,0,0,0,0,0,0,0,0,0,0,0,0,0,0,0,0,0,0,0,0,0,0,0,0,0,0,0,0,0,0,1,1,1,1,1,3,5,6,7,12,17,23,28,31,36,51,56,63,75,84,88,99,106,116,130,138,139,148,155,163,178,186
"464-Rochester-Batavia-Seneca Falls, NY",464,"Rochester-Batavia-Seneca Falls, NY",-77.67772141297807,43.10378853628487,0,0,0,0,0,0,0,0,0,0,0,0,0,0,0,0,0,0,0,0,0,0,0,0,0,0,0,0,0,0,0,0,0,0,0,0,0,0,0,0,0,0,0,0,0,0,0,0,0,0,2,1,2,2,12,15,21,32,39,56,78,91,122,139,176,203,250,271,307,323,436,518,570,628,679,710,747,834,903,969,1004
"466-Rockford-Freeport-Rochelle, IL",466,"Rockford-Freeport-Rochelle, IL",-89.19894413306307,42.29419280585585,0,0,0,0,0,0,0,0,0,0,0,0,0,0,0,0,0,0,0,0,0,0,0,0,0,0,0,0,0,0,0,0,0,0,0,0,0,0,0,0,0,0,0,0,0,0,0,0,0,0,0,0,0,0,0,1,1,1,1,4,5,6,6,8,8,10,11,15,16,18,22,28,32,43,53,65,65,88,88,108,111
"468-Rocky Mount-Wilson-Roanoke Rapids, NC",468,"Rocky Mount-Wilson-Roanoke Rapids, NC",-77.70021253572165,36.055605012474224,0,0,0,0,0,0,0,0,0,0,0,0,0,0,0,0,0,0,0,0,0,0,0,0,0,0,0,0,0,0,0,0,0,0,0,0,0,0,0,0,0,0,0,0,0,0,0,0,0,0,0,0,0,0,1,1,1,1,2,2,4,6,9,11,14,15,16,42,48,61,65,69,84,99,106,111,137,143,158,171,194
"472-Sacramento-Roseville, CA",472,"Sacramento-Roseville, CA",-121.2735348398349,38.62211419439629,0,0,0,0,0,0,0,0,0,0,0,0,0,0,0,0,0,0,0,0,0,0,0,0,0,0,0,0,0,0,1,1,1,1,1,1,2,2,2,2,3,3,4,4,8,8,8,10,18,19,25,22,38,36,41,50,54,60,68,69,74,113,124,160,169,229,251,266,332,356,388,498,591,602,660,686,762,847,862,963,969
"474-Saginaw-Midland-Bay City, MI",474,"Saginaw-Midland-Bay City, MI",-84.07122335154301,43.42035644480712,0,0,0,0,0,0,0,0,0,0,0,0,0,0,0,0,0,0,0,0,0,0,0,0,0,0,0,0,0,0,0,0,0,0,0,0,0,0,0,0,0,0,0,0,0,0,0,0,0,0,0,0,1,1,1,1,1,2,4,5,8,9,15,18,20,26,31,37,54,70,93,113,124,144,166,191,206,249,275,316,337
"476-St. Louis-St. Charles-Farmington, MO-IL",476,"St. Louis-St. Charles-Farmington, MO-IL",-90.38804674048356,38.62731516604931,0,0,0,0,0,0,0,0,0,0,0,0,0,0,0,0,0,0,0,0,0,0,0,0,0,0,0,0,0,0,0,0,0,0,0,0,0,0,0,0,0,0,0,0,0,0,1,1,1,1,2,2,4,4,6,8,13,18,23,34,43,99,150,211,299,407,510,566,620,846,1062,1252,1262,1599,1642,1920,2244,2399,2573,2993,3164
"480-Salisbury-Cambridge, MD-DE",480,"Salisbury-Cambridge, MD-DE",-75.41861648604701,38.61468189944444,0,0,0,0,0,0,0,0,0,0,0,0,0,0,0,0,0,0,0,0,0,0,0,0,0,0,0,0,0,0,0,0,0,0,0,0,0,0,0,0,0,0,0,0,0,0,0,0,0,0,0,0,0,0,0,1,1,3,9,12,17,25,30,33,35,45,68,75,91,99,117,122,134,145,176,185,244,317,342,391,468
"482-Salt Lake City-Provo-Orem, UT",482,"Salt Lake City-Provo-Orem, UT",-111.7535383655996,40.66022242349738,0,0,0,0,0,0,0,0,0,0,0,0,0,0,0,0,0,0,0,0,0,0,0,0,0,0,0,0,0,0,0,0,0,0,0,0,0,0,0,0,0,0,0,0,0,1,1,1,2,3,3,7,8,18,28,39,47,60,93,116,160,236,277,321,374,449,569,681,760,832,832,1022,1188,1363,1529,1597,1656,1756,1762,1996,2093
"484-San Antonio-New Braunfels-Pearsall, TX",484,"San Antonio-New Braunfels-Pearsall, TX",-98.48337825702019,29.469650516338383,0,0,0,0,0,0,0,0,0,0,0,0,0,0,0,0,0,0,0,0,0,0,0,0,0,0,0,0,0,0,0,0,0,0,0,0,0,0,0,0,0,0,0,0,0,0,0,0,0,0,0,1,2,2,3,4,12,30,33,44,53,66,82,85,108,140,155,173,195,209,251,282,314,409,455,482,548,608,668,736,792
"488-San Jose-San Francisco-Oakland, CA",488,"San Jose-San Francisco-Oakland, CA",-121.97140352103979,37.5942389976783,0,0,0,0,0,0,0,0,0,1,1,1,4,4,4,4,4,4,4,4,4,4,4,4,4,4,4,4,4,4,4,4,4,4,4,4,4,4,5,5,13,17,18,29,31,51,63,65,89,110,133,183,227,224,315,382,441,495,576,705,750,925,1099,1271,1523,1764,1893,2082,2421,2591,2859,3108,3371,3635,3994,4119,4362,4657,4798,5119,5328
"496-Savannah-Hinesville-Statesboro, GA",496,"Savannah-Hinesville-Statesboro, GA",-81.26954831977976,32.04037897810573,0,0,0,0,0,0,0,0,0,0,0,0,0,0,0,0,0,0,0,0,0,0,0,0,0,0,0,0,0,0,0,0,0,0,0,0,0,0,0,0,0,0,0,0,0,0,0,0,0,0,0,0,0,0,0,0,0,0,3,5,6,6,12,13,17,20,28,31,33,45,57,71,89,101,125,162,186,200,208,218,227
"497-Scottsboro-Fort Payne, AL",497,"Scottsboro-Fort Payne, AL",-85.90487250790699,34.624199027906975,0,0,0,0,0,0,0,0,0,0,0,0,0,0,0,0,0,0,0,0,0,0,0,0,0,0,0,0,0,0,0,0,0,0,0,0,0,0,0,0,0,0,0,0,0,0,0,0,0,0,0,0,0,0,0,0,0,0,1,1,1,1,2,2,5,5,9,9,9,12,13,17,22,25,28,31,32,33,37,39,43
"500-Seattle-Tacoma, WA",500,"Seattle-Tacoma, WA",-121.88458626042599,47.60193054715226,1,1,1,1,1,1,1,1,1,1,1,1,1,1,1,1,1,1,1,1,1,1,1,1,1,1,1,1,1,1,1,1,1,1,1,1,1,1,7,11,18,27,39,69,77,99,118,118,158,277,400,490,583,583,752,916,975,1171,1327,1550,1713,1905,2024,2272,2747,2926,3470,3672,3856,4300,4386,4942,5184,5493,5903,6155,6438,6718,7027,7370,7606
"508-Shreveport-Bossier City-Minden, LA",508,"Shreveport-Bossier City-Minden, LA",-93.8090343637406,32.553912258536954,0,0,0,0,0,0,0,0,0,0,0,0,0,0,0,0,0,0,0,0,0,0,0,0,0,0,0,0,0,0,0,0,0,0,0,0,0,0,0,0,0,0,0,0,0,0,0,0,0,0,1,1,2,2,4,5,6,9,20,23,23,54,61,131,166,199,264,309,318,352,429,484,541,837,909,983,1041,1104,1233,1289,1326
"515-South Bend-Elkhart-Mishawaka, IN-MI",515,"South Bend-Elkhart-Mishawaka, IN-MI",-86.21342559403551,41.67694260357868,0,0,0,0,0,0,0,0,0,0,0,0,0,0,0,0,0,0,0,0,0,0,0,0,0,0,0,0,0,0,0,0,0,0,0,0,0,0,0,0,0,0,0,0,0,0,0,0,0,1,1,1,1,1,1,1,1,3,6,9,15,26,30,34,41,60,71,83,91,116,132,147,171,197,220,237,269,296,323,355,394
"517-Spencer-Spirit Lake, IA",517,"Spencer-Spirit Lake, IA",-95.15098340666667,43.18094029666667,0,0,0,0,0,0,0,0,0,0,0,0,0,0,0,0,0,0,0,0,0,0,0,0,0,0,0,0,0,0,0,0,0,0,0,0,0,0,0,0,0,0,0,0,0,0,0,0,0,0,0,0,0,0,0,0,0,0,0,0,0,0,0,0,0,1,1,1,1,1,2,3,3,3,3,3,3,3,3,3,3
"518-Spokane-Spokane Valley-Coeur d'Alene, WA-ID",518,"Spokane-Spokane Valley-Coeur d'Alene, WA-ID",-117.31091181661131,47.64422032717608,0,0,0,0,0,0,0,0,0,0,0,0,0,0,0,0,0,0,0,0,0,0,0,0,0,0,0,0,0,0,0,0,0,0,0,0,0,0,0,0,0,0,0,0,0,0,0,0,0,0,0,0,3,3,3,4,5,10,14,20,24,27,38,42,78,95,122,137,165,169,192,218,236,251,264,269,270,286,294,299,301
"522-Springfield-Jacksonville-Lincoln, IL",522,"Springfield-Jacksonville-Lincoln, IL",-89.60636438426829,39.71106363560975,0,0,0,0,0,0,0,0,0,0,0,0,0,0,0,0,0,0,0,0,0,0,0,0,0,0,0,0,0,0,0,0,0,0,0,0,0,0,0,0,0,0,0,0,0,0,0,0,0,0,0,0,0,2,2,4,3,4,4,5,5,5,6,7,7,9,10,19,29,32,36,40,44,50,57,63,63,69,69,79,82
"524-State College-DuBois, PA",524,"State College-DuBois, PA",-77.8974585926923,40.92987965961539,0,0,0,0,0,0,0,0,0,0,0,0,0,0,0,0,0,0,0,0,0,0,0,0,0,0,0,0,0,0,0,0,0,0,0,0,0,0,0,0,0,0,0,0,0,0,0,0,0,0,0,0,0,0,0,0,0,0,1,1,1,3,8,10,11,13,17,24,28,30,31,32,37,46,50,51,62,64,66,69,78
"525-Steamboat Springs-Craig, CO",525,"Steamboat Springs-Craig, CO",-107.0865968631579,40.49639754526316,0,0,0,0,0,0,0,0,0,0,0,0,0,0,0,0,0,0,0,0,0,0,0,0,0,0,0,0,0,0,0,0,0,0,0,0,0,0,0,0,0,0,0,0,0,0,0,0,0,0,0,1,1,1,1,1,2,2,2,2,3,3,3,4,9,9,12,18,18,21,21,23,27,31,32,32,35,35,35,35,38
"532-Syracuse-Auburn, NY",532,"Syracuse-Auburn, NY",-76.12632472892456,43.011415124687,0,0,0,0,0,0,0,0,0,0,0,0,0,0,0,0,0,0,0,0,0,0,0,0,0,0,0,0,0,0,0,0,0,0,0,0,0,0,0,0,0,0,0,0,0,0,0,0,0,0,0,0,0,0,1,2,6,7,13,34,45,56,68,92,126,146,185,235,288,317,363,396,433,462,493,514,537,562,576,621,623
"534-Toledo-Findlay-Tiffin, OH",534,"Toledo-Findlay-Tiffin, OH",-83.6319599316443,41.56497396842283,0,0,0,0,0,0,0,0,0,0,0,0,0,0,0,0,0,0,0,0,0,0,0,0,0,0,0,0,0,0,0,0,0,0,0,0,0,0,0,0,0,0,0,0,0,0,0,0,0,0,0,0,0,1,1,1,1,1,2,4,9,14,18,29,45,62,86,116,140,164,207,249,282,324,363,390,421,451,488,538,596
"536-Tucson-Nogales, AZ",536,"Tucson-Nogales, AZ",-111.77643442520869,32.089493421101835,0,0,0,0,0,0,0,0,0,0,0,0,0,0,0,0,0,0,0,0,0,0,0,0,0,0,0,0,0,0,0,0,0,0,0,0,0,0,0,0,0,0,0,0,0,0,0,0,1,1,1,1,2,2,4,4,5,7,9,13,18,25,43,50,77,104,122,155,189,204,220,240,283,330,376,419,420,470,519,550,599
"538-Tulsa-Muskogee-Bartlesville, OK",538,"Tulsa-Muskogee-Bartlesville, OK",-95.95989877269815,36.186873303612806,0,0,0,0,0,0,0,0,0,0,0,0,0,0,0,0,0,0,0,0,0,0,0,0,0,0,0,0,0,0,0,0,0,0,0,0,0,0,0,0,0,0,0,0,0,1,1,1,2,2,2,2,2,2,3,4,4,7,7,8,12,17,19,47,81,106,124,139,148,180,235,300,342,418,459,481,524,549,585,617,656
"539-Tupelo-Corinth, MS",539,"Tupelo-Corinth, MS",-88.67471762797621,34.375310527142865,0,0,0,0,0,0,0,0,0,0,0,0,0,0,0,0,0,0,0,0,0,0,0,0,0,0,0,0,0,0,0,0,0,0,0,0,0,0,0,0,0,0,0,0,0,0,0,0,0,0,0,0,0,0,0,0,0,0,1,1,10,12,17,20,22,23,27,32,31,39,42,44,55,58,60,62,71,74,77,82,84
"540-Tyler-Jacksonville, TX",540,"Tyler-Jacksonville, TX",-95.2653229921212,32.342165671515154,0,0,0,0,0,0,0,0,0,0,0,0,0,0,0,0,0,0,0,0,0,0,0,0,0,0,0,0,0,0,0,0,0,0,0,0,0,0,0,0,0,0,0,0,0,0,0,0,0,0,0,3,3,4,4,4,5,5,5,6,10,10,14,16,21,28,28,32,33,38,42,47,59,63,63,68,81,85,88,94,99
"544-Victoria-Port Lavaca, TX",544,"Victoria-Port Lavaca, TX",-96.93528790148936,28.743065612765953,0,0,0,0,0,0,0,0,0,0,0,0,0,0,0,0,0,0,0,0,0,0,0,0,0,0,0,0,0,0,0,0,0,0,0,0,0,0,0,0,0,0,0,0,0,0,0,0,0,0,0,0,0,0,0,0,0,0,0,0,0,0,3,5,5,6,6,8,12,22,23,29,36,41,44,50,65,74,82,91,94
"545-Virginia Beach-Norfolk, VA-NC",545,"Virginia Beach-Norfolk, VA-NC",-76.3673629995238,36.89321169457143,0,0,0,0,0,0,0,0,0,0,0,0,0,0,0,0,0,0,0,0,0,0,0,0,0,0,0,0,0,0,0,0,0,0,0,0,0,0,0,0,0,0,0,0,0,0,0,0,2,2,0,7,8,8,12,18,20,24,36,42,69,73,83,100,120,143,175,217,232,303,361,419,489,611,650,684,751,814,850,896,945
"548-Washington-Baltimore-Arlington, DC-MD-VA-WV-PA",548,"Washington-Baltimore-Arlington, DC-MD-VA-WV-PA",-77.01745201206853,39.03789768405453,0,0,0,0,0,0,0,0,0,0,0,0,0,0,0,0,0,0,0,0,0,0,0,0,0,0,0,0,0,0,0,0,0,0,0,0,0,0,0,0,0,0,0,0,3,3,7,7,14,15,22,34,45,49,94,120,159,204,281,369,448,528,624,805,1041,1357,1688,2048,2353,2796,3317,3817,4471,5106,5824,6506,7156,8688,9684,10832,11994
"554-Wausau-Stevens Point-Wisconsin Rapids, WI",554,"Wausau-Stevens Point-Wisconsin Rapids, WI",-89.73429080210526,44.76242819210527,0,0,0,0,0,0,0,0,0,0,0,0,0,0,0,0,0,0,0,0,0,0,0,0,0,0,0,0,0,0,0,0,0,0,0,0,0,0,0,0,0,0,0,0,0,0,0,0,0,0,0,0,0,0,1,1,1,1,2,2,2,2,2,2,3,4,4,4,5,6,8,12,14,14,17,17,18,18,18,18,19
"556-Wichita-Winfield, KS",556,"Wichita-Winfield, KS",-97.43315032315533,37.68849457553398,0,0,0,0,0,0,0,0,0,0,0,0,0,0,0,0,0,0,0,0,0,0,0,0,0,0,0,0,0,0,0,0,0,0,0,0,0,0,0,0,0,0,0,0,0,0,0,0,0,0,0,1,1,1,1,1,1,2,3,3,5,5,10,14,20,25,38,47,54,63,72,90,97,110,121,138,149,169,176,176,206
"558-Williamsport-Lock Haven, PA",558,"Williamsport-Lock Haven, PA",-77.21448209074073,41.314445388518514,0,0,0,0,0,0,0,0,0,0,0,0,0,0,0,0,0,0,0,0,0,0,0,0,0,0,0,0,0,0,0,0,0,0,0,0,0,0,0,0,0,0,0,0,0,0,0,0,0,0,0,0,0,0,0,0,0,0,0,0,0,0,0,1,1,2,2,3,4,6,7,7,9,11,10,13,15,18,21,24,27
"566-Youngstown-Warren, OH-PA",566,"Youngstown-Warren, OH-PA",-80.74183366135541,41.06725236685241,0,0,0,0,0,0,0,0,0,0,0,0,0,0,0,0,0,0,0,0,0,0,0,0,0,0,0,0,0,0,0,0,0,0,0,0,0,0,0,0,0,0,0,0,0,0,0,0,0,0,1,1,2,2,2,3,5,7,10,17,24,29,37,57,71,96,122,138,177,226,262,286,328,390,410,445,495,529,577,635,664
